{"type": "FeatureCollection", "name": "UK Fuel Stations", "features": [{"type": "Feature", "geometry": {"type": "Point", "coordinates": [0.310954, 51.710571]}, "properties": {"site_id": "u10npjd7vv05", "brand": "AppleGreen", "address": "Chelmsford Road, Norton Heath", "postcode": "CM4 0LQ", "last_updated": "25/04/2024 11:50:14", "prices": [{"B7": 1.578}, {"E10": 1.4980000000000002}]}}, {"type": "Feature", "geometry": {"type": "Point", "coordinates": [0.47456, 51.7582]}, "properties": {"site_id": "u10q6y3965c9", "brand": "AppleGreen", "address": "74 Main Road, Broomfield", "postcode": "CM1 7DH", "last_updated": "25/04/2024 11:50:14", "prices": [{"B7": 1.568}, {"E10": 1.4780000000000002}]}}, {"type": "Feature", "geometry": {"type": "Point", "coordinates": [-0.205965, 51.1098]}, "properties": {"site_id": "gcpfg2600tm2", "brand": "AppleGreen", "address": "Crawley Avenue, Crawley", "postcode": "RH10 8BA", "last_updated": "25/04/2024 11:50:14", "prices": [{"B7": 1.528}, {"E5": 1.558}, {"E10": 1.4380000000000002}]}}, {"type": "Feature", "geometry": {"type": "Point", "coordinates": [-0.211631, 52.5503]}, "properties": {"site_id": "gcrfgnmzstum", "brand": "AppleGreen", "address": "Whittlesey Road, Peterborough", "postcode": "PE2 8RR", "last_updated": "25/04/2024 11:50:14", "prices": [{"B7": 1.578}, {"E5": 1.6280000000000001}, {"E10": 1.4780000000000002}]}}, {"type": "Feature", "geometry": {"type": "Point", "coordinates": [-0.598553, 51.7249]}, "properties": {"site_id": "gcpw62hpksnx", "brand": "AppleGreen", "address": "Ashley Green Road, Chesham", "postcode": "HP5 3PG", "last_updated": "25/04/2024 11:50:14", "prices": [{"B7": 1.578}, {"E10": 1.4980000000000002}]}}, {"type": "Feature", "geometry": {"type": "Point", "coordinates": [-1.86386, 52.4662]}, "properties": {"site_id": "gcqdmx4vbbt3", "brand": "AppleGreen", "address": "Small Heath Highway, Birmingham", "postcode": "B10 0AE", "last_updated": "25/04/2024 11:50:14", "prices": [{"B7": 1.568}, {"E10": 1.4680000000000002}]}}, {"type": "Feature", "geometry": {"type": "Point", "coordinates": [-2.21108, 51.3189]}, "properties": {"site_id": "gcn7vwmfq076", "brand": "AppleGreen", "address": "Bythesea Road, Trowbridge", "postcode": "BA14 8HR", "last_updated": "25/04/2024 11:50:14", "prices": [{"B7": 1.558}, {"E5": 1.588}, {"E10": 1.4580000000000002}]}}, {"type": "Feature", "geometry": {"type": "Point", "coordinates": [-2.017702, 52.545683]}, "properties": {"site_id": "gcqdfjdub1k2", "brand": "AppleGreen", "address": "Holloway Bank, Wednesbury", "postcode": "WS10 0NP", "last_updated": "25/04/2024 11:50:14", "prices": [{"B7": 1.558}, {"E10": 1.4680000000000002}]}}, {"type": "Feature", "geometry": {"type": "Point", "coordinates": [-1.15394, 51.9036]}, "properties": {"site_id": "gcppm8z8rhrf", "brand": "AppleGreen", "address": "Banbury Road, Bicester", "postcode": "OX26 2HJ", "last_updated": "25/04/2024 11:50:14", "prices": [{"B7": 1.538}, {"E10": 1.4680000000000002}]}}, {"type": "Feature", "geometry": {"type": "Point", "coordinates": [0.04721, 52.4525]}, "properties": {"site_id": "u1243hdmundq", "brand": "AppleGreen", "address": "22 West Park Street, Chatteris", "postcode": "PE16 6AJ", "last_updated": "25/04/2024 11:50:14", "prices": [{"B7": 1.538}, {"E5": 1.558}, {"E10": 1.4380000000000002}]}}]}