{"type": "FeatureCollection", "name": "UK Fuel Stations", "features": [{"type": "Feature", "geometry": {"type": "Point", "coordinates": [0.310954, 51.710571]}, "properties": {"site_id": "u10npjd7vv05", "brand": "AppleGreen", "address": "Chelmsford Road, Norton Heath", "postcode": "CM4 0LQ", "last_updated": "25/04/2024 11:50:14", "prices": {"B7": 1.578, "E10": 1.4980000000000002}}}, {"type": "Feature", "geometry": {"type": "Point", "coordinates": [0.47456, 51.7582]}, "properties": {"site_id": "u10q6y3965c9", "brand": "AppleGreen", "address": "74 Main Road, Broomfield", "postcode": "CM1 7DH", "last_updated": "25/04/2024 11:50:14", "prices": {"B7": 1.568, "E10": 1.4780000000000002}}}, {"type": "Feature", "geometry": {"type": "Point", "coordinates": [-0.205965, 51.1098]}, "properties": {"site_id": "gcpfg2600tm2", "brand": "AppleGreen", "address": "Crawley Avenue, Crawley", "postcode": "RH10 8BA", "last_updated": "25/04/2024 11:50:14", "prices": {"B7": 1.528, "E5": 1.558, "E10": 1.4380000000000002}}}, {"type": "Feature", "geometry": {"type": "Point", "coordinates": [-0.211631, 52.5503]}, "properties": {"site_id": "gcrfgnmzstum", "brand": "AppleGreen", "address": "Whittlesey Road, Peterborough", "postcode": "PE2 8RR", "last_updated": "25/04/2024 11:50:14", "prices": {"B7": 1.578, "E5": 1.6280000000000001, "E10": 1.4780000000000002}}}, {"type": "Feature", "geometry": {"type": "Point", "coordinates": [-0.598553, 51.7249]}, "properties": {"site_id": "gcpw62hpksnx", "brand": "AppleGreen", "address": "Ashley Green Road, Chesham", "postcode": "HP5 3PG", "last_updated": "25/04/2024 11:50:14", "prices": {"B7": 1.578, "E10": 1.4980000000000002}}}, {"type": "Feature", "geometry": {"type": "Point", "coordinates": [-1.86386, 52.4662]}, "properties": {"site_id": "gcqdmx4vbbt3", "brand": "AppleGreen", "address": "Small Heath Highway, Birmingham", "postcode": "B10 0AE", "last_updated": "25/04/2024 11:50:14", "prices": {"B7": 1.568, "E10": 1.4680000000000002}}}, {"type": "Feature", "geometry": {"type": "Point", "coordinates": [-2.21108, 51.3189]}, "properties": {"site_id": "gcn7vwmfq076", "brand": "AppleGreen", "address": "Bythesea Road, Trowbridge", "postcode": "BA14 8HR", "last_updated": "25/04/2024 11:50:14", "prices": {"B7": 1.558, "E5": 1.588, "E10": 1.4580000000000002}}}, {"type": "Feature", "geometry": {"type": "Point", "coordinates": [-2.017702, 52.545683]}, "properties": {"site_id": "gcqdfjdub1k2", "brand": "AppleGreen", "address": "Holloway Bank, Wednesbury", "postcode": "WS10 0NP", "last_updated": "25/04/2024 11:50:14", "prices": {"B7": 1.558, "E10": 1.4680000000000002}}}, {"type": "Feature", "geometry": {"type": "Point", "coordinates": [-1.15394, 51.9036]}, "properties": {"site_id": "gcppm8z8rhrf", "brand": "AppleGreen", "address": "Banbury Road, Bicester", "postcode": "OX26 2HJ", "last_updated": "25/04/2024 11:50:14", "prices": {"B7": 1.538, "E10": 1.4680000000000002}}}, {"type": "Feature", "geometry": {"type": "Point", "coordinates": [0.04721, 52.4525]}, "properties": {"site_id": "u1243hdmundq", "brand": "AppleGreen", "address": "22 West Park Street, Chatteris", "postcode": "PE16 6AJ", "last_updated": "25/04/2024 11:50:14", "prices": {"B7": 1.538, "E5": 1.558, "E10": 1.4380000000000002}}}, {"type": "Feature", "geometry": {"type": "Point", "coordinates": [0.315937, 51.0718]}, "properties": {"site_id": "u104x1q4cce9", "brand": "AppleGreen", "address": "Station Road, Wadhurst", "postcode": "TN5 6RP", "last_updated": "25/04/2024 11:50:14", "prices": {"B7": 1.598, "E5": 1.6480000000000001, "E10": 1.508}}}, {"type": "Feature", "geometry": {"type": "Point", "coordinates": [0.096173, 50.9669]}, "properties": {"site_id": "u101fnnp8yzb", "brand": "AppleGreen", "address": "High Street, Uckfield", "postcode": "TN22 5DL", "last_updated": "25/04/2024 11:50:14", "prices": {"B7": 1.568, "E5": 1.608, "E10": 1.4680000000000002}}}, {"type": "Feature", "geometry": {"type": "Point", "coordinates": [1.197083, 52.061264]}, "properties": {"site_id": "u12b5jrwy51b", "brand": "AppleGreen", "address": "23 Woodbridge Road East, Ipswich", "postcode": "IP4 5QN", "last_updated": "25/04/2024 11:50:14", "prices": {"B7": 1.538, "E5": 1.588, "E10": 1.4480000000000002}}}, {"type": "Feature", "geometry": {"type": "Point", "coordinates": [-0.04587, 52.975785]}, "properties": {"site_id": "gcrvqgyw74hf", "brand": "AppleGreen", "address": "157 Sleaford Road, Boston", "postcode": "PE21 7PF", "last_updated": "25/04/2024 11:50:14", "prices": {"B7": 1.558, "E5": 1.618, "E10": 1.4780000000000002}}}, {"type": "Feature", "geometry": {"type": "Point", "coordinates": [-0.656099, 53.575684]}, "properties": {"site_id": "gcx8c14hzz35", "brand": "AppleGreen", "address": "Ashby Road, Scunthorpe", "postcode": "DN16 2AQ", "last_updated": "25/04/2024 11:50:14", "prices": {"B7": 1.558, "E5": 1.608, "E10": 1.4680000000000002}}}, {"type": "Feature", "geometry": {"type": "Point", "coordinates": [-1.7804, 51.5685]}, "properties": {"site_id": "gcntr7z839js", "brand": "AppleGreen", "address": "Great Western Way, Swindon", "postcode": "SN2 1US", "last_updated": "25/04/2024 11:50:14", "prices": {"B7": 1.558, "E5": 1.6380000000000001, "E10": 1.4880000000000002}}}, {"type": "Feature", "geometry": {"type": "Point", "coordinates": [-3.048228, 52.854389]}, "properties": {"site_id": "gcmudtu75hhr", "brand": "AppleGreen", "address": "Salop Road, Oswestry", "postcode": "SY11 2RL", "last_updated": "25/04/2024 11:50:14", "prices": {"B7": 1.558, "E5": 1.6280000000000001, "E10": 1.4880000000000002}}}, {"type": "Feature", "geometry": {"type": "Point", "coordinates": [0.28666, 52.462489]}, "properties": {"site_id": "u124qw88psv0", "brand": "AppleGreen", "address": "A10 Bypass, Ely", "postcode": "CB6 1SE", "last_updated": "25/04/2024 11:50:14", "prices": {"B7": 1.588, "E5": 1.6680000000000001, "E10": 1.528}}}, {"type": "Feature", "geometry": {"type": "Point", "coordinates": [-3.139685, 52.662139]}, "properties": {"site_id": "gcmg8dcg0n1p", "brand": "AppleGreen", "address": "Salop Road, Welshpool", "postcode": "SY21 7ET", "last_updated": "25/04/2024 11:50:14", "prices": {"B7": 1.538, "E10": 1.4380000000000002}}}, {"type": "Feature", "geometry": {"type": "Point", "coordinates": [-1.39893, 52.5364]}, "properties": {"site_id": "gcr4b5vqdwf1", "brand": "AppleGreen", "address": "Coventry Road, Hinckley", "postcode": "LE10 0NB", "last_updated": "25/04/2024 11:50:14", "prices": {"B7": 1.568, "E5": 1.608, "E10": 1.4680000000000002}}}, {"type": "Feature", "geometry": {"type": "Point", "coordinates": [-2.802029, 52.537839]}, "properties": {"site_id": "gcq4bhpx5gp9", "brand": "AppleGreen", "address": "Crossways, Church Stretton", "postcode": "SY6 6PQ", "last_updated": "25/04/2024 11:50:14", "prices": {"B7": 1.558, "E5": 1.6280000000000001, "E10": 1.4780000000000002}}}, {"type": "Feature", "geometry": {"type": "Point", "coordinates": [-2.720323, 52.04677]}, "properties": {"site_id": "gcq044g47vhh", "brand": "AppleGreen", "address": "Ross Road, Hereford", "postcode": "HR2 7RJ", "last_updated": "25/04/2024 11:50:14", "prices": {"B7": 1.518, "E5": 1.578, "E10": 1.4380000000000002}}}, {"type": "Feature", "geometry": {"type": "Point", "coordinates": [1.2727, 52.665784]}, "properties": {"site_id": "u12gsgwb2j9y", "brand": "AppleGreen", "address": "160 Cromer Road, Norwich", "postcode": "NR6 6XA", "last_updated": "25/04/2024 11:50:14", "prices": {"B7": 1.558, "E5": 1.6280000000000001, "E10": 1.4880000000000002}}}, {"type": "Feature", "geometry": {"type": "Point", "coordinates": [1.223087, 52.675966]}, "properties": {"site_id": "u12gev6eezzb", "brand": "AppleGreen", "address": "3-5 Fakenham Road, Drayton, Norwich", "postcode": "NR8 6PL", "last_updated": "25/04/2024 11:50:14", "prices": {"B7": 1.558, "E5": 1.6280000000000001, "E10": 1.4880000000000002}}}, {"type": "Feature", "geometry": {"type": "Point", "coordinates": [-0.825005, 51.823365]}, "properties": {"site_id": "gcpqv4phzzrt", "brand": "AppleGreen", "address": "Bicester Road, Aylesbury", "postcode": "HP19 3BB", "last_updated": "25/04/2024 11:50:14", "prices": {"B7": 1.548, "E5": 1.618, "E10": 1.4780000000000002}}}, {"type": "Feature", "geometry": {"type": "Point", "coordinates": [-3.570213, 51.504362]}, "properties": {"site_id": "gcjmnb068hbn", "brand": "AppleGreen", "address": "Tremains Road, Bridgend", "postcode": "CF31 1TZ", "last_updated": "25/04/2024 11:50:14", "prices": {"B7": 1.528, "E10": 1.4880000000000002}}}, {"type": "Feature", "geometry": {"type": "Point", "coordinates": [-2.590714, 51.47593]}, "properties": {"site_id": "gcnhv4cmpbze", "brand": "AppleGreen", "address": "106/114 Gloucester Rd, Bristol", "postcode": "BS7 8NL", "last_updated": "25/04/2024 11:50:14", "prices": {"B7": 1.558, "E5": 1.6280000000000001, "E10": 1.4880000000000002}}}, {"type": "Feature", "geometry": {"type": "Point", "coordinates": [-0.081196, 51.64572]}, "properties": {"site_id": "gcpvy1uf5gzz", "brand": "AppleGreen", "address": "London Road, Enfield", "postcode": "EN2 6EU", "last_updated": "25/04/2024 11:50:14", "prices": {"B7": 1.558, "E5": 1.618, "E10": 1.4780000000000002}}}, {"type": "Feature", "geometry": {"type": "Point", "coordinates": [-0.339203, 51.551779]}, "properties": {"site_id": "gcpv228yzupu", "brand": "AppleGreen", "address": "1091 Greenford Road, Greenford", "postcode": "UB6 0EJ", "last_updated": "25/04/2024 11:50:14", "prices": {"B7": 1.578, "E5": 1.6280000000000001, "E10": 1.4880000000000002}}}, {"type": "Feature", "geometry": {"type": "Point", "coordinates": [-0.97781, 50.831255]}, "properties": {"site_id": "gcp31txcx2sn", "brand": "AppleGreen", "address": "258 Havant Road, Portsmouth", "postcode": "PO11 0LP", "last_updated": "25/04/2024 11:50:14", "prices": {"B7": 1.578, "E5": 1.6380000000000001, "E10": 1.4780000000000002}}}, {"type": "Feature", "geometry": {"type": "Point", "coordinates": [-3.376064, 51.741912]}, "properties": {"site_id": "gcjw75mdkp2p", "brand": "AppleGreen", "address": "3 - 3a Lower High Street, Merthyr Tydfil", "postcode": "CF47 8EB", "last_updated": "25/04/2024 11:50:14", "prices": {"B7": 1.598, "E10": 1.4980000000000002}}}, {"type": "Feature", "geometry": {"type": "Point", "coordinates": [-4.794674, 50.334504]}, "properties": {"site_id": "gbuw6gheezxg", "brand": "AppleGreen", "address": "1 Pennewick Road, St Austell", "postcode": "PL25 5DP", "last_updated": "25/04/2024 11:50:14", "prices": {"B7": 1.578, "E10": 1.4780000000000002}}}, {"type": "Feature", "geometry": {"type": "Point", "coordinates": [-2.541962, 53.398479]}, "properties": {"site_id": "gcqpy0uuxvzy", "brand": "AppleGreen", "address": "43 Manchester Road, Warrington", "postcode": "WA1 4AE", "last_updated": "25/04/2024 11:50:14", "prices": {"B7": 1.548, "E5": 1.588, "E10": 1.4680000000000002}}}, {"type": "Feature", "geometry": {"type": "Point", "coordinates": [-1.348057, 50.933875]}, "properties": {"site_id": "gcp1c24r7frz", "brand": "AppleGreen", "address": "Swaythling Rd, Southampton", "postcode": "SO30 3AG", "last_updated": "25/04/2024 11:50:14", "prices": {"B7": 1.558, "E10": 1.4980000000000002}}}, {"type": "Feature", "geometry": {"type": "Point", "coordinates": [-0.128059, 51.419443]}, "properties": {"site_id": "gcput0dgbnbm", "brand": "AppleGreen", "address": "275 Streatham Common High Rd, Streatham", "postcode": "SW16 3BS", "last_updated": "25/04/2024 11:50:14", "prices": {"B7": 1.558, "E5": 1.6280000000000001, "E10": 1.4880000000000002}}}, {"type": "Feature", "geometry": {"type": "Point", "coordinates": [-0.417639, 51.873204]}, "properties": {"site_id": "gcpxn7pzk61f", "brand": "AppleGreen", "address": "157-159 Castle Street, Luton", "postcode": "LU1 3AA", "last_updated": "25/04/2024 11:50:14", "prices": {"B7": 1.568, "E5": 1.6380000000000001, "E10": 1.4780000000000002}}}, {"type": "Feature", "geometry": {"type": "Point", "coordinates": [-0.101109, 51.615032]}, "properties": {"site_id": "gcpvtsnr7grd", "brand": "AppleGreen", "address": "243 North Circular Road, Palmers Green", "postcode": "N13 5JF", "last_updated": "25/04/2024 11:50:14", "prices": {"B7": 1.578, "E10": 1.4780000000000002}}}, {"type": "Feature", "geometry": {"type": "Point", "coordinates": [-1.314899, 52.967187]}, "properties": {"site_id": "gcrj646s0xk1", "brand": "AppleGreen", "address": "Derby Road, Ilkeston", "postcode": "DE7 5FH", "last_updated": "25/04/2024 11:50:14", "prices": {"B7": 1.558, "E5": 1.598, "E10": 1.4580000000000002}}}, {"type": "Feature", "geometry": {"type": "Point", "coordinates": [0.875301, 51.14651]}, "properties": {"site_id": "u10dgyvq5bx8", "brand": "AppleGreen", "address": "North Street, Ashford", "postcode": "TN24 8LQ", "last_updated": "25/04/2024 11:50:14", "prices": {"B7": 1.558, "E5": 1.6280000000000001, "E10": 1.4880000000000002}}}, {"type": "Feature", "geometry": {"type": "Point", "coordinates": [-2.502423, 51.829076]}, "properties": {"site_id": "gcnnz51y3241", "brand": "AppleGreen", "address": "133 High Street, Cinderford", "postcode": "GL14 2TD", "last_updated": "25/04/2024 11:50:14", "prices": {"B7": 1.548, "E5": 1.6280000000000001, "E10": 1.4880000000000002}}}, {"type": "Feature", "geometry": {"type": "Point", "coordinates": [-2.742558, 52.227117]}, "properties": {"site_id": "gcq11edvjb28", "brand": "AppleGreen", "address": "A44 Bargates, Leominster", "postcode": "HR6 8EY", "last_updated": "25/04/2024 11:50:14", "prices": {"B7": 1.618, "E5": 1.6780000000000002, "E10": 1.538}}}, {"type": "Feature", "geometry": {"type": "Point", "coordinates": [-1.40986, 52.533601]}, "properties": {"site_id": "gcqfzgmq7vh0", "brand": "AppleGreen", "address": "A5 Watling Street, Hinckley", "postcode": "LE10 3ED", "last_updated": "25/04/2024 11:50:14", "prices": {"B7": 1.568, "E10": 1.4680000000000002}}}, {"type": "Feature", "geometry": {"type": "Point", "coordinates": [-3.920273, 51.663034]}, "properties": {"site_id": "gcjjyucqgp8d", "brand": "AppleGreen", "address": "Neath Road, Swansea", "postcode": "SA6 8EF", "last_updated": "25/04/2024 11:50:14", "prices": {"B7": 1.568, "E5": 1.6280000000000001, "E10": 1.4880000000000002}}}, {"type": "Feature", "geometry": {"type": "Point", "coordinates": [-3.98293, 51.64533]}, "properties": {"site_id": "gcjjv3exz521", "brand": "AppleGreen", "address": "1093 Carmarthen Road, Swansea", "postcode": "SA5 4AN", "last_updated": "25/04/2024 11:50:14", "prices": {"B7": 1.558, "E5": 1.6280000000000001, "E10": 1.4880000000000002}}}, {"type": "Feature", "geometry": {"type": "Point", "coordinates": [-3.908668, 51.621484]}, "properties": {"site_id": "gcjjxj3ucqjf", "brand": "AppleGreen", "address": "Fabian Way, Swansea", "postcode": "SA1 8PA", "last_updated": "25/04/2024 11:50:14", "prices": {"B7": 1.568, "E5": 1.6280000000000001, "E10": 1.4880000000000002, "SDV": 1.7080000000000002}}}, {"type": "Feature", "geometry": {"type": "Point", "coordinates": [-3.779302, 51.591409]}, "properties": {"site_id": "gcjm3zzvxzsn", "brand": "AppleGreen", "address": "Port Talbot Road, Swansea", "postcode": "SA13 1HN", "last_updated": "25/04/2024 11:50:14", "prices": {"B7": 1.578, "E10": 1.4880000000000002}}}, {"type": "Feature", "geometry": {"type": "Point", "coordinates": [-0.012537, 51.757745]}, "properties": {"site_id": "gcpyrwnyeygx", "brand": "AppleGreen", "address": "21 High Street, Hoddesdon", "postcode": "EN11 8SX", "last_updated": "25/04/2024 11:50:14", "prices": {"B7": 1.528, "E10": 1.4780000000000002}}}, {"type": "Feature", "geometry": {"type": "Point", "coordinates": [-0.122233, 51.605789]}, "properties": {"site_id": "gcpvt4wcxb26", "brand": "AppleGreen", "address": "2 Bounds Green Road, Bowes Park", "postcode": "N11 2QH", "last_updated": "25/04/2024 11:50:14", "prices": {"B7": 1.578, "E5": 1.6280000000000001, "E10": 1.4880000000000002}}}, {"type": "Feature", "geometry": {"type": "Point", "coordinates": [-0.094468, 51.480946]}, "properties": {"site_id": "gcpuvgg4nxzs", "brand": "AppleGreen", "address": "96-106 Camberwell Road, Camberwell", "postcode": "SE5 0EG", "last_updated": "25/04/2024 11:50:14", "prices": {"B7": 1.548, "E5": 1.608, "E10": 1.4580000000000002}}}, {"type": "Feature", "geometry": {"type": "Point", "coordinates": [-1.338941, 53.716115]}, "properties": {"site_id": "gcx19d9p03t5", "brand": "AppleGreen", "address": "Front Street, Castleford", "postcode": "WF10 4QE", "last_updated": "25/04/2024 11:50:14", "prices": {"B7": 1.518, "E10": 1.4380000000000002}}}, {"type": "Feature", "geometry": {"type": "Point", "coordinates": [-2.102919, 51.91537]}, "properties": {"site_id": "gcnx24usyqmu", "brand": "AppleGreen", "address": "Tewkesbury Road, Swindon Village", "postcode": "GL51 9SG", "last_updated": "25/04/2024 11:50:14", "prices": {"B7": 1.558, "E5": 1.618, "E10": 1.4780000000000002}}}, {"type": "Feature", "geometry": {"type": "Point", "coordinates": [-1.37036, 54.916445]}, "properties": {"site_id": "gcz02v4pkr3d", "brand": "AppleGreen", "address": "Dame Dorothy Street, Sunderland", "postcode": "SR6 0EZ", "last_updated": "25/04/2024 11:50:14", "prices": {"B7": 1.568, "E5": 1.618, "E10": 1.4780000000000002}}}, {"type": "Feature", "geometry": {"type": "Point", "coordinates": [-2.524885, 52.717713]}, "properties": {"site_id": "gcq5yscqvvvr", "brand": "AppleGreen", "address": "Shawbirch Crossroads, Telford", "postcode": "TF1 3QA", "last_updated": "25/04/2024 11:50:14", "prices": {"B7": 1.568, "E5": 1.6280000000000001, "E10": 1.4880000000000002}}}, {"type": "Feature", "geometry": {"type": "Point", "coordinates": [-1.439396, 53.367207]}, "properties": {"site_id": "gcqzx5pye8kt", "brand": "AppleGreen", "address": "580 City road, Sheffield", "postcode": "S2 1GE", "last_updated": "25/04/2024 11:50:14", "prices": {"B7": 1.578, "E5": 1.6280000000000001, "E10": 1.4880000000000002}}}, {"type": "Feature", "geometry": {"type": "Point", "coordinates": [-2.309507, 51.317599]}, "properties": {"site_id": "gcn7gqn68tfc", "brand": "AppleGreen", "address": "Hinton Charterhouse, Bath", "postcode": "BA2 7TP", "last_updated": "25/04/2024 11:50:14", "prices": {"B7": 1.6380000000000001, "E5": 1.6780000000000002, "E10": 1.538}}}, {"type": "Feature", "geometry": {"type": "Point", "coordinates": [-2.893803, 53.223474]}, "properties": {"site_id": "gcmyy1hc1w8j", "brand": "AppleGreen", "address": "Liverpool Road, Chester", "postcode": "CH2 4BA", "last_updated": "25/04/2024 11:50:14", "prices": {"B7": 1.598, "E10": 1.508}}}, {"type": "Feature", "geometry": {"type": "Point", "coordinates": [-1.956587, 52.612486]}, "properties": {"site_id": "gcqe73z3bnnz", "brand": "AppleGreen", "address": "Lichfield Road, Walsall", "postcode": "WS4 1PQ", "last_updated": "25/04/2024 11:50:14", "prices": {"B7": 1.588, "E10": 1.4880000000000002}}}, {"type": "Feature", "geometry": {"type": "Point", "coordinates": [-3.083567, 53.137161]}, "properties": {"site_id": "gcmy3c6d7svb", "brand": "AppleGreen", "address": "Wrexham Road, Mold", "postcode": "CH7 4HL", "last_updated": "25/04/2024 11:50:14", "prices": {"B7": 1.558, "E10": 1.4980000000000002}}}, {"type": "Feature", "geometry": {"type": "Point", "coordinates": [-2.998185, 51.251495]}, "properties": {"site_id": "gcjgef0c95ph", "brand": "AppleGreen", "address": "124 Berrow Road, Burnham on Sea", "postcode": "TA8 2PG", "last_updated": "25/04/2024 11:50:14", "prices": {"B7": 1.578, "E10": 1.4880000000000002}}}, {"type": "Feature", "geometry": {"type": "Point", "coordinates": [0.409505, 50.845435]}, "properties": {"site_id": "u103324hnhj1", "brand": "AppleGreen", "address": "Barnhorn Road, Bexhill", "postcode": "TN39 4QR", "last_updated": "25/04/2024 11:50:14", "prices": {"B7": 1.538, "E10": 1.4480000000000002}}}, {"type": "Feature", "geometry": {"type": "Point", "coordinates": [-1.955522, 52.509237]}, "properties": {"site_id": "gcqdex003p1p", "brand": "AppleGreen", "address": "122 Holyhead Road, Birmingham", "postcode": "B21 0LL", "last_updated": "25/04/2024 11:50:14", "prices": {"B7": 1.568, "E5": 1.608, "E10": 1.4680000000000002}}}, {"type": "Feature", "geometry": {"type": "Point", "coordinates": [-2.996594, 53.417318]}, "properties": {"site_id": "gcmzgu3fqmc9", "brand": "AppleGreen", "address": "121-129 Great Howard Street, Liverpool", "postcode": "L3 7AT", "last_updated": "25/04/2024 11:50:14", "prices": {"B7": 1.578, "E5": 1.618, "E10": 1.4780000000000002, "SDV": 1.7180000000000002}}}, {"type": "Feature", "geometry": {"type": "Point", "coordinates": [-2.93978, 53.743956]}, "properties": {"site_id": "gctctpg34pt1", "brand": "AppleGreen", "address": "Preston Road, St Annes, Lytham", "postcode": "FY8 5AT", "last_updated": "25/04/2024 11:50:14", "prices": {"B7": 1.548, "E10": 1.4680000000000002}}}, {"type": "Feature", "geometry": {"type": "Point", "coordinates": [-2.977856, 53.857028]}, "properties": {"site_id": "gctfkhrefvtt", "brand": "AppleGreen", "address": "Mains Lane, Little Singleton, Poulton Le Fylde", "postcode": "FY6 7LJ", "last_updated": "25/04/2024 11:50:14", "prices": {"B7": 1.588, "E5": 1.6480000000000001, "E10": 1.508}}}, {"type": "Feature", "geometry": {"type": "Point", "coordinates": [-1.998259, 52.462879]}, "properties": {"site_id": "gcqd6w8fmjqp", "brand": "AppleGreen", "address": "Hagley Road West, Birmingham", "postcode": "B32 2AL", "last_updated": "25/04/2024 11:50:14", "prices": {"B7": 1.528, "E5": 1.598, "E10": 1.4580000000000002}}}, {"type": "Feature", "geometry": {"type": "Point", "coordinates": [-1.88377, 52.549405]}, "properties": {"site_id": "gcqdvnk62zp6", "brand": "AppleGreen", "address": "551 Kingstanding Road, Birmingham", "postcode": "B44 9TD", "last_updated": "25/04/2024 11:50:14", "prices": {"B7": 1.558, "E10": 1.4580000000000002}}}, {"type": "Feature", "geometry": {"type": "Point", "coordinates": [-3.138778, 53.170418]}, "properties": {"site_id": "gcmy2x6kjhm3", "brand": "AppleGreen", "address": "Roundabout Service Station King Street, Clwyd", "postcode": "CH7 1LB", "last_updated": "25/04/2024 11:50:14", "prices": {"B7": 1.548, "E10": 1.4880000000000002}}}, {"type": "Feature", "geometry": {"type": "Point", "coordinates": [-3.45236, 53.260123]}, "properties": {"site_id": "gcmwcrwndntb", "brand": "AppleGreen", "address": "Seaways Service Station, The Roe, Clwyd", "postcode": "LL17 OLY", "last_updated": "25/04/2024 11:50:14", "prices": {"B7": 1.598, "E10": 1.528}}}, {"type": "Feature", "geometry": {"type": "Point", "coordinates": [0.479075, 51.592036]}, "properties": {"site_id": "u10mdbhc7k84", "brand": "AppleGreen", "address": "Summerhill Service Station, Basildon", "postcode": "SS14 3AS", "last_updated": "25/04/2024 11:50:14", "prices": {"B7": 1.568, "E5": 1.6280000000000001, "E10": 1.4880000000000002}}}, {"type": "Feature", "geometry": {"type": "Point", "coordinates": [-2.031486, 52.528289]}, "properties": {"site_id": "gcqdcf2xqyy1", "brand": "AppleGreen", "address": "232 Whitehall road, Tipton", "postcode": "DY4 7EX", "last_updated": "25/04/2024 11:50:14", "prices": {"B7": 1.568, "E10": 1.4780000000000002}}}, {"type": "Feature", "geometry": {"type": "Point", "coordinates": [1.074838, 51.868374]}, "properties": {"site_id": "u10z06qejt9q", "brand": "AppleGreen", "address": "Colchester Road, Colchester", "postcode": "CO7 8RX", "last_updated": "25/04/2024 11:50:14", "prices": {"B7": 1.588, "E5": 1.6480000000000001, "E10": 1.508}}}, {"type": "Feature", "geometry": {"type": "Point", "coordinates": [-2.335518, 53.767641]}, "properties": {"site_id": "gcw3fu574qxx", "brand": "AppleGreen", "address": "Burnley Road, Accrington", "postcode": "BB5 6LD", "last_updated": "25/04/2024 11:50:14", "prices": {"B7": 1.558, "E5": 1.6280000000000001, "E10": 1.4780000000000002}}}, {"type": "Feature", "geometry": {"type": "Point", "coordinates": [-1.22424, 52.422008]}, "properties": {"site_id": "gcr4hphs34s6", "brand": "AppleGreen", "address": "A5 Watling street, Lutterworth", "postcode": "LE17 6AR", "last_updated": "25/04/2024 11:50:14", "prices": {"B7": 1.548, "E5": 1.6280000000000001, "E10": 1.4880000000000002, "SDV": 1.6880000000000002}}}, {"type": "Feature", "geometry": {"type": "Point", "coordinates": [-1.475005, 52.508706]}, "properties": {"site_id": "gcqfwqvvmuhx", "brand": "AppleGreen", "address": "Bedworth Service Station, Nuneaton", "postcode": "CV10 7DA", "last_updated": "25/04/2024 11:50:14", "prices": {"B7": 1.558, "E5": 1.608, "E10": 1.4680000000000002, "SDV": 1.6980000000000002}}}, {"type": "Feature", "geometry": {"type": "Point", "coordinates": [-0.511891, 52.662771]}, "properties": {"site_id": "gcres6gqbh43", "brand": "AppleGreen", "address": "Great North Rd, Stamford", "postcode": "PE9 4DE", "last_updated": "25/04/2024 11:50:14", "prices": {"B7": 1.588, "E5": 1.618, "E10": 1.4780000000000002, "SDV": 1.7280000000000002}}}, {"type": "Feature", "geometry": {"type": "Point", "coordinates": [-3.581624, 54.543568]}, "properties": {"site_id": "gctqq3rgq458", "brand": "AppleGreen", "address": "Back Corkickle, Cumbria", "postcode": "CA28 7TS", "last_updated": "25/04/2024 11:50:14", "prices": {"B7": 1.588, "E5": 1.6380000000000001, "E10": 1.4980000000000002}}}, {"type": "Feature", "geometry": {"type": "Point", "coordinates": [-1.106375, 53.941097]}, "properties": {"site_id": "gcx4ygdmet71", "brand": "AppleGreen", "address": "20 \u2013 22 Tadcaster Road, York", "postcode": "YO24 1LQ", "last_updated": "25/04/2024 11:50:14", "prices": {"B7": 1.588, "E5": 1.618, "E10": 1.4780000000000002}}}, {"type": "Feature", "geometry": {"type": "Point", "coordinates": [-3.355793, 55.11688]}, "properties": {"site_id": "gcv9e9srh757", "brand": "AppleGreen", "address": "1 Carlisle Road, Scotland", "postcode": "DG11 2DJ", "last_updated": "25/04/2024 11:50:14", "prices": {"B7": 1.588, "E10": 1.4980000000000002}}}, {"type": "Feature", "geometry": {"type": "Point", "coordinates": [-0.064847, 53.730004]}, "properties": {"site_id": "gcxcwt0zbyww", "brand": "AppleGreen", "address": "Hull Road, North Humberside", "postcode": "HU12 8DJ", "last_updated": "25/04/2024 11:50:14", "prices": {"B7": 1.578, "E5": 1.6480000000000001, "E10": 1.4980000000000002, "SDV": 1.7280000000000002}}}, {"type": "Feature", "geometry": {"type": "Point", "coordinates": [-1.188221, 53.48486]}, "properties": {"site_id": "gcx0kbwgbkw1", "brand": "AppleGreen", "address": "Edlington Lane, Doncaster", "postcode": "DN12 1BS", "last_updated": "25/04/2024 11:50:14", "prices": {"B7": 1.558, "E10": 1.4680000000000002, "SDV": 1.7180000000000002}}}, {"type": "Feature", "geometry": {"type": "Point", "coordinates": [-1.863702, 52.465736]}, "properties": {"site_id": "gcqdmx4ghd51", "brand": "AppleGreen", "address": "Small Heath Highway, Birmingham", "postcode": "B10 0AE", "last_updated": "25/04/2024 11:50:14", "prices": {"B7": 1.568, "E10": 1.4680000000000002}}}, {"type": "Feature", "geometry": {"type": "Point", "coordinates": [-1.131019, 53.527394]}, "properties": {"site_id": "gcx0w227tm7n", "brand": "AppleGreen", "address": "Doncaster St George Service Station, Doncaster", "postcode": "DN1 2RE", "last_updated": "25/04/2024 11:50:14", "prices": {"B7": 1.568, "E10": 1.4680000000000002, "SDV": 1.7280000000000002}}}, {"type": "Feature", "geometry": {"type": "Point", "coordinates": [0.123629, 51.729901]}, "properties": {"site_id": "u10n6c4h8b2r", "brand": "AppleGreen", "address": "High Road, Epping", "postcode": "CM16 6LX", "last_updated": "25/04/2024 11:50:14", "prices": {"B7": 1.538, "E10": 1.4680000000000002, "SDV": 1.6580000000000001}}}, {"type": "Feature", "geometry": {"type": "Point", "coordinates": [-2.726326, 52.377698]}, "properties": {"site_id": "gcq1czndpyxf", "brand": "AppleGreen", "address": "Bromfield Road, Ludlow", "postcode": "SY8 1DN", "last_updated": "25/04/2024 11:50:14", "prices": {"B7": 1.568, "E5": 1.618, "E10": 1.4780000000000002}}}, {"type": "Feature", "geometry": {"type": "Point", "coordinates": [-1.638278, 54.678724]}, "properties": {"site_id": "gcwz49zn9kgm", "brand": "AppleGreen", "address": "A688, Binchester", "postcode": "DL14 8AW", "last_updated": "25/04/2024 11:50:14", "prices": {"B7": 1.558, "E10": 1.4680000000000002}}}, {"type": "Feature", "geometry": {"type": "Point", "coordinates": [-2.193355, 53.042816]}, "properties": {"site_id": "gcqmy04ug1ef", "brand": "AppleGreen", "address": "Waterloo Road, Stoke on Trent", "postcode": "ST6 2EH", "last_updated": "25/04/2024 11:50:14", "prices": {"B7": 1.558, "E10": 1.4880000000000002}}}, {"type": "Feature", "geometry": {"type": "Point", "coordinates": [-1.678374, 54.651083]}, "properties": {"site_id": "gcwycucveh38", "brand": "AppleGreen", "address": "Cockton Hill Road, Co Durham", "postcode": "DL14 6JN", "last_updated": "25/04/2024 11:50:14", "prices": {"B7": 1.568, "E10": 1.4780000000000002}}}, {"type": "Feature", "geometry": {"type": "Point", "coordinates": [-1.593905, 54.826288]}, "properties": {"site_id": "gcwzgsz672f7", "brand": "AppleGreen", "address": "A167 Northbound, Chester Le Street", "postcode": "DH2 3NL", "last_updated": "25/04/2024 11:50:14", "prices": {"B7": 1.558, "E10": 1.4780000000000002}}}, {"type": "Feature", "geometry": {"type": "Point", "coordinates": [-1.545995, 52.418392]}, "properties": {"site_id": "gcqfhy6pr8qx", "brand": "AppleGreen", "address": "Holyhead Road Service Station, Coventry", "postcode": "CV5 8ND", "last_updated": "25/04/2024 11:50:14", "prices": {"B7": 1.568, "E10": 1.4780000000000002}}}, {"type": "Feature", "geometry": {"type": "Point", "coordinates": [-2.713201, 53.299106]}, "properties": {"site_id": "gcqp4qb3cc6x", "brand": "AppleGreen", "address": "Frodsham Sevice Station, Frodsham", "postcode": "Wa6 7HN", "last_updated": "25/04/2024 11:50:14", "prices": {"B7": 1.568, "E5": 1.608, "E10": 1.4680000000000002}}}, {"type": "Feature", "geometry": {"type": "Point", "coordinates": [-1.849825, 52.4421]}, "properties": {"site_id": "gcqdmfucrgyx", "brand": "AppleGreen", "address": "Stratford Road, Birmingham", "postcode": "B28 8BN", "last_updated": "25/04/2024 11:50:14", "prices": {"B7": 1.558, "E5": 1.608, "E10": 1.4680000000000002}}}, {"type": "Feature", "geometry": {"type": "Point", "coordinates": [-0.933465, 51.423038]}, "properties": {"site_id": "gcpkdc22btn4", "brand": "AppleGreen", "address": "The Square, Reading", "postcode": "RG6 5HJ", "last_updated": "25/04/2024 11:50:14", "prices": {"B7": 1.578, "E5": 1.618, "E10": 1.4780000000000002, "SDV": 1.7280000000000002}}}, {"type": "Feature", "geometry": {"type": "Point", "coordinates": [-1.120383, 52.638934]}, "properties": {"site_id": "gcr5qw8hj0tb", "brand": "AppleGreen", "address": "131 Humberstone Road, Leicester", "postcode": "LE5 3AD", "last_updated": "25/04/2024 11:50:14", "prices": {"B7": 1.548, "E5": 1.6280000000000001, "E10": 1.4880000000000002}}}, {"type": "Feature", "geometry": {"type": "Point", "coordinates": [-1.650772, 52.803078]}, "properties": {"site_id": "gcqu6ktbnppj", "brand": "AppleGreen", "address": "1 Wellington Road, Burton", "postcode": "DE14 2AP", "last_updated": "25/04/2024 11:50:14", "prices": {"B7": 1.579, "E5": 1.639, "E10": 1.499, "SDV": 1.719}}}, {"type": "Feature", "geometry": {"type": "Point", "coordinates": [-2.567768, 51.536079]}, "properties": {"site_id": "gcnjjtf5qtmm", "brand": "AppleGreen", "address": "Applegreen Patchway Service Station, Bristol", "postcode": "BS34 6NA", "last_updated": "25/04/2024 11:50:14", "prices": {"B7": 1.558, "E5": 1.618, "E10": 1.4780000000000002}}}, {"type": "Feature", "geometry": {"type": "Point", "coordinates": [-2.19966, 53.545627]}, "properties": {"site_id": "gcw2tgwmbhqd", "brand": "AppleGreen", "address": "Manchester new rd, Manchester", "postcode": "M24 1DE", "last_updated": "25/04/2024 11:50:14", "prices": {"B7": 1.548, "E5": 1.608, "E10": 1.4680000000000002, "SDV": 1.6880000000000002}}}, {"type": "Feature", "geometry": {"type": "Point", "coordinates": [0.537507, 51.878569]}, "properties": {"site_id": "u10rhhpqsf4q", "brand": "AppleGreen", "address": "142 Rayne Road, Essex", "postcode": "CM7 2QS", "last_updated": "25/04/2024 11:50:14", "prices": {"B7": 1.508, "E5": 1.598, "E10": 1.4580000000000002, "SDV": 1.6480000000000001}}}, {"type": "Feature", "geometry": {"type": "Point", "coordinates": [-2.661308, 51.850749]}, "properties": {"site_id": "gcnngrnhe00v", "brand": "AppleGreen", "address": "Calcott, Ross-on-wye", "postcode": "hr9 6dw", "last_updated": "25/04/2024 11:50:14", "prices": {"B7": 1.618, "E5": 1.6780000000000002, "E10": 1.538, "SDV": 1.758}}}, {"type": "Feature", "geometry": {"type": "Point", "coordinates": [-2.624369, 51.440545]}, "properties": {"site_id": "gcnhsk2yzub8", "brand": "TEXACO", "address": "Ambassador, Winterstoke Road, Ashton Vale, Bristol.", "postcode": "BS3 2NP", "last_updated": "24/04/2024 11:50:16", "prices": {"B7": 1.579, "E10": 1.499}}}, {"type": "Feature", "geometry": {"type": "Point", "coordinates": [-1.462525, 52.52783]}, "properties": {"site_id": "gcqfydrhb9q5", "brand": "BP", "address": "Anker, Weddington Road, Nuneaton.", "postcode": "CV10 0AD", "last_updated": "24/04/2024 11:50:16", "prices": {"B7": 1.557, "E10": 1.4969999999999999}}}, {"type": "Feature", "geometry": {"type": "Point", "coordinates": [-0.733917, 51.747124]}, "properties": {"site_id": "gcpqrk38f7ps", "brand": "JET ", "address": "Ash, London Road, Wendover.", "postcode": "HP22 6PN", "last_updated": "24/04/2024 11:50:16", "prices": {"B7": 1.5490000000000002, "E10": 1.469}}}, {"type": "Feature", "geometry": {"type": "Point", "coordinates": [0.178065, 51.720871]}, "properties": {"site_id": "u10nhp3xvjpq", "brand": "JET ", "address": "Bassett, 215 High Road, North Weald, Epping.", "postcode": "CM16 6ED", "last_updated": "24/04/2024 11:50:16", "prices": {"B7": 1.579, "E10": 1.499}}}, {"type": "Feature", "geometry": {"type": "Point", "coordinates": [-2.795245, 54.028575]}, "properties": {"site_id": "gcw527se603u", "brand": "BP", "address": "Bowling Green, Scotforth Rd, Lancaster.", "postcode": "LA1 4SG", "last_updated": "24/04/2024 11:50:16", "prices": {"B7": 1.589, "E10": 1.499}}}, {"type": "Feature", "geometry": {"type": "Point", "coordinates": [-2.648837, 51.409784]}, "properties": {"site_id": "gcnh7wz5tw7f", "brand": "SHELL", "address": "Bridgwater Road, Bristol.", "postcode": "BS41 8JP", "last_updated": "24/04/2024 11:50:16", "prices": {"B7": 1.579, "E10": 1.499}}}, {"type": "Feature", "geometry": {"type": "Point", "coordinates": [-3.027577, 51.825054]}, "properties": {"site_id": "gcjyg47qu66q", "brand": "BP", "address": "Brecon Road, Brecon Road, Abergavenny.", "postcode": "NP7 7RB", "last_updated": "24/04/2024 11:50:16", "prices": {"B7": 1.589, "E10": 1.489}}}, {"type": "Feature", "geometry": {"type": "Point", "coordinates": [-0.268575, 52.515594]}, "properties": {"site_id": "gcrfcbhmt8rb", "brand": "JET ", "address": "Broadway, 289 Broadway, Yaxley, Peterborough.", "postcode": "PE7 3NR", "last_updated": "24/04/2024 11:50:16", "prices": {"B7": 1.5590000000000002, "E10": 1.499}}}, {"type": "Feature", "geometry": {"type": "Point", "coordinates": [-0.537736, 51.897895]}, "properties": {"site_id": "gcpx5z8rjuf6", "brand": "BP", "address": "Chalk Hill, Watling Street, Dunstable, Bedfordshire.", "postcode": "LU6 1RS", "last_updated": "24/04/2024 11:50:16", "prices": {"B7": 1.579, "E10": 1.499}}}, {"type": "Feature", "geometry": {"type": "Point", "coordinates": [-2.958342, 50.874128]}, "properties": {"site_id": "gcjcktmg38u4", "brand": "TEXACO", "address": "Chard, East Street, Chard, Somerset.", "postcode": "TA20 1EP", "last_updated": "24/04/2024 11:50:16", "prices": {"B7": 1.5190000000000001, "E10": 1.459}}}, {"type": "Feature", "geometry": {"type": "Point", "coordinates": [-1.890445, 51.550059]}, "properties": {"site_id": "gcntkbrkv7tc", "brand": "ESSO", "address": "Coped Hall, Swindon Road, Royal Wootton Bassett, Swindon.", "postcode": "SN4 8ES", "last_updated": "24/04/2024 11:50:16", "prices": {"B7": 1.599, "E10": 1.499}}}, {"type": "Feature", "geometry": {"type": "Point", "coordinates": [-3.41212, 50.64178]}, "properties": {"site_id": "gcj84753gb4b", "brand": "ESSO", "address": "Courtlands, 397 Exeter Road, Exmouth.", "postcode": "EX8 3NS", "last_updated": "24/04/2024 11:50:16", "prices": {"B7": 1.569, "E10": 1.489}}}, {"type": "Feature", "geometry": {"type": "Point", "coordinates": [-3.337831, 52.27509]}, "properties": {"site_id": "gcm9kh3kqzhf", "brand": "TEXACO", "address": "Crossgates, Llandrindod Wells, Powys.", "postcode": "LD1 6RE", "last_updated": "24/04/2024 11:50:16", "prices": {"B7": 1.569, "E10": 1.489}}}, {"type": "Feature", "geometry": {"type": "Point", "coordinates": [-4.948318, 51.704948]}, "properties": {"site_id": "gchqpksepufs", "brand": "TEXACO", "address": "Crossways, Haven Bridge Road, Neyland, Pembrokshire.", "postcode": "SA73 1QZ", "last_updated": "24/04/2024 11:50:16", "prices": {"B7": 1.5490000000000002, "E10": 1.459}}}, {"type": "Feature", "geometry": {"type": "Point", "coordinates": [-1.570624, 53.478626]}, "properties": {"site_id": "gcwbhr2r9f97", "brand": "JET ", "address": "Deepcar, 74 Manchester Road, Deepcar, Sheffield.", "postcode": "S36 2RE", "last_updated": "24/04/2024 11:50:16", "prices": {"B7": 1.569, "E10": 1.499}}}, {"type": "Feature", "geometry": {"type": "Point", "coordinates": [-0.326341, 51.234445]}, "properties": {"site_id": "gcpg2wfq78y5", "brand": "BP", "address": "Dorking, 2 Reigate Road, Dorking, Surrey.", "postcode": "RH14 1SG", "last_updated": "24/04/2024 11:50:16", "prices": {"B7": 1.579, "E10": 1.499}}}, {"type": "Feature", "geometry": {"type": "Point", "coordinates": [-4.280289, 52.213717]}, "properties": {"site_id": "gckcn95nyn34", "brand": "TEXACO", "address": "Dryslwyn, Llwyncelyn, Aberaeron, Ceredigion.", "postcode": "SA46 0HF", "last_updated": "24/04/2024 11:50:16", "prices": {"B7": 1.5590000000000002, "E10": 1.479}}}, {"type": "Feature", "geometry": {"type": "Point", "coordinates": [-3.13793, 51.675806]}, "properties": {"site_id": "gcjvbx712umv", "brand": "TEXACO", "address": "Enterprise, Bypass Road, Crumlin, Newport.", "postcode": "NP11 4QJ", "last_updated": "24/04/2024 11:50:16", "prices": {"B7": 1.547, "E10": 1.4669999999999999}}}, {"type": "Feature", "geometry": {"type": "Point", "coordinates": [-3.440762, 50.673584]}, "properties": {"site_id": "gcj838ye02ty", "brand": "TEXACO", "address": "Exton, Exmouth Road, Exton, Devon.", "postcode": "EX3 0PQ", "last_updated": "24/04/2024 11:50:16", "prices": {"B7": 1.579, "E10": 1.489}}}, {"type": "Feature", "geometry": {"type": "Point", "coordinates": [-4.470685, 51.825604]}, "properties": {"site_id": "gchyf68d12z9", "brand": "TEXACO", "address": "A40 West, Carmarthen Road, Carmarthenshire.", "postcode": "SA33 4NA", "last_updated": "24/04/2024 11:50:16", "prices": {"B7": 1.569, "E10": 1.469}}}, {"type": "Feature", "geometry": {"type": "Point", "coordinates": [-4.470685, 54.876111]}, "properties": {"site_id": "gcybpmfsw090", "brand": "JET ", "address": "Foxcover, Durham Rd, Middle Herrington, Sunderland.", "postcode": "SR3 3ND", "last_updated": "24/04/2024 11:50:16", "prices": {"B7": 1.537, "E10": 1.4569999999999999}}}, {"type": "Feature", "geometry": {"type": "Point", "coordinates": [-1.7911788, 54.876111]}, "properties": {"site_id": "gcnsx0pswt0n", "brand": "JET ", "address": "Fyfield, Bath Road, Fyfield, Nr Marlborough.", "postcode": "SN8 1PU", "last_updated": "24/04/2024 11:50:16", "prices": {"B7": 1.567, "E10": 1.4769999999999999}}}, {"type": "Feature", "geometry": {"type": "Point", "coordinates": [-1.4911698, 52.5168898]}, "properties": {"site_id": "gcqfy06jj1z5", "brand": "JET ", "address": "Glendale, Croft Road, Stockingford, Warwickshire.", "postcode": "CV10 7EE", "last_updated": "24/04/2024 11:50:16", "prices": {"B7": 1.5590000000000002, "E10": 1.499}}}, {"type": "Feature", "geometry": {"type": "Point", "coordinates": [-4.0732025, 51.8056545]}, "properties": {"site_id": "gcjneqcvz6p9", "brand": "TEXACO", "address": "Gorslas, Llandeilo Road, Gorslas, Llanelli.", "postcode": "SA14 7LW", "last_updated": "24/04/2024 11:50:16", "prices": {"B7": 1.537, "E10": 1.4569999999999999}}}, {"type": "Feature", "geometry": {"type": "Point", "coordinates": [-4.9193127, 51.6807492]}, "properties": {"site_id": "gchw001y5tyk", "brand": "TEXACO", "address": "Green Garage, Bush Hill, Pembroke, Pembrokeshire.", "postcode": "SA71 4QT", "last_updated": "24/04/2024 11:50:16", "prices": {"B7": 1.5490000000000002, "E10": 1.459}}}, {"type": "Feature", "geometry": {"type": "Point", "coordinates": [-1.65381, 53.330434]}, "properties": {"site_id": "gcqz6ke8r3my", "brand": "TEXACO", "address": "Hathersage, Main Road, Hathersage.", "postcode": "S32 1BB", "last_updated": "24/04/2024 11:50:16", "prices": {"B7": 1.599, "E10": 1.489}}}, {"type": "Feature", "geometry": {"type": "Point", "coordinates": [-1.49879, 52.5211474]}, "properties": {"site_id": "gcqfvchtgemj", "brand": "TEXACO", "address": "251 Haunchwood Road, Nuneaton, Warwickshire.", "postcode": "CV10 8DE", "last_updated": "24/04/2024 11:50:16", "prices": {"B7": 1.589, "E10": 1.499}}}, {"type": "Feature", "geometry": {"type": "Point", "coordinates": [-1.364412, 53.0110963]}, "properties": {"site_id": "gcrj8fqknbs9", "brand": "TEXACO", "address": "Heanor, 129 Derby Road, Heanor, Derbyshire.", "postcode": "DE75 7QL", "last_updated": "24/04/2024 11:50:16", "prices": {"B7": 1.557, "E10": 1.4669999999999999}}}, {"type": "Feature", "geometry": {"type": "Point", "coordinates": [-0.3041018, 52.0066904]}, "properties": {"site_id": "gcpzc5d8cvtj", "brand": "JET ", "address": "Henlow, 50 Bedford Road, Henlow, Bedfordshire.", "postcode": "SG16 6DZ", "last_updated": "24/04/2024 11:50:16", "prices": {"B7": 1.567, "E10": 1.4869999999999999}}}, {"type": "Feature", "geometry": {"type": "Point", "coordinates": [-1.7240903, 50.7515571]}, "properties": {"site_id": "gcnb8z091zcm", "brand": "TEXACO", "address": "Hinton, Lyndhurst Road, Hinton, Christchurch.", "postcode": "BH23 7DS", "last_updated": "24/04/2024 11:50:16", "prices": {"B7": 1.599, "E10": 1.5190000000000001}}}, {"type": "Feature", "geometry": {"type": "Point", "coordinates": [-3.2413339, 53.2796661]}, "properties": {"site_id": "gcmxn5r8x3w5", "brand": "TEXACO", "address": "Holywell, Holway Road, Holywell.", "postcode": "CH8 7LQ", "last_updated": "24/04/2024 11:50:16", "prices": {"B7": 1.557, "E10": 1.4769999999999999}}}, {"type": "Feature", "geometry": {"type": "Point", "coordinates": [-4.1512012, 50.4124207]}, "properties": {"site_id": "gbvnc931wh2h", "brand": "TEXACO", "address": "Honicknowle, Crownhill Road, Crownhill, Devon.", "postcode": "PL5 3SL", "last_updated": "24/04/2024 11:50:16", "prices": {"B7": 1.579, "E10": 1.499}}}, {"type": "Feature", "geometry": {"type": "Point", "coordinates": [-1.0936058, 52.4468462]}, "properties": {"site_id": "gcr4r5etj0sq", "brand": "ESSO", "address": "Station Road, North Kilworth, Lutterworth.", "postcode": "LE17 6EP", "last_updated": "24/04/2024 11:50:16", "prices": {"B7": 1.579, "E10": 1.499}}}, {"type": "Feature", "geometry": {"type": "Point", "coordinates": [-4.5023995, 51.8183432]}, "properties": {"site_id": "gchyc91rwrr0", "brand": "TEXACO", "address": "Ivy, Tenby Road, St Clears, Carmarthen.", "postcode": "SA33 4JP", "last_updated": "24/04/2024 11:50:16", "prices": {"B7": 1.569, "E10": 1.469}}}, {"type": "Feature", "geometry": {"type": "Point", "coordinates": [-2.1628836, 53.0606507]}, "properties": {"site_id": "gcqmyg3h9nkb", "brand": "JET ", "address": "Jacks, 375 Ford Green Road, Stoke On Trent.", "postcode": "ST6 8LX", "last_updated": "24/04/2024 11:50:16", "prices": {"B7": 1.547, "E10": 1.4669999999999999}}}, {"type": "Feature", "geometry": {"type": "Point", "coordinates": [-3.0251629, 52.2008829]}, "properties": {"site_id": "gcmbgnvhhtfu", "brand": "TEXACO", "address": "Lomas, 18A Headbrook, Kington, Herefordshire.", "postcode": "HR5 3DZ", "last_updated": "24/04/2024 11:50:16", "prices": {"B7": 1.599, "E10": 1.499}}}, {"type": "Feature", "geometry": {"type": "Point", "coordinates": [-0.241974, 53.609685]}, "properties": {"site_id": "gcxbfrrg19e5", "brand": "JET ", "address": "Luxmore East, A180 Eastbound, Immingham.", "postcode": "DN40 3BH", "last_updated": "24/04/2024 11:50:16", "prices": {"B7": 1.5190000000000001, "E10": 1.459}}}, {"type": "Feature", "geometry": {"type": "Point", "coordinates": [-0.243434, 53.609087]}, "properties": {"site_id": "gcxbfrnxxd4k", "brand": "JET ", "address": "Luxmore West, A180 Westbound, Immingham.", "postcode": "DN40 3BH", "last_updated": "24/04/2024 11:50:16", "prices": {"B7": 1.5190000000000001, "E10": 1.459}}}, {"type": "Feature", "geometry": {"type": "Point", "coordinates": [-3.8551006, 52.5939288]}, "properties": {"site_id": "gcm70q2vcdut", "brand": "TEXACO", "address": "Machynlleth, Heol Y Doll, Machynlleth.", "postcode": "SY20 8BH", "last_updated": "24/04/2024 11:50:16", "prices": {"B7": 1.5490000000000002, "E10": 1.489}}}, {"type": "Feature", "geometry": {"type": "Point", "coordinates": [-3.9112611, 51.9346049]}, "properties": {"site_id": "gcjpqyrvj006", "brand": "TEXACO", "address": "Manordeilo, A40 Manordeilo, Llandeilo.", "postcode": "SA19 7BN", "last_updated": "24/04/2024 11:50:16", "prices": {"B7": 1.5490000000000002, "E10": 1.489}}}, {"type": "Feature", "geometry": {"type": "Point", "coordinates": [-4.1042152, 50.3668617]}, "properties": {"site_id": "gbvnd952hze6", "brand": "TEXACO", "address": "Morley, 6 Billacombe Road, Pomphlett, Plymouth.", "postcode": "PL9 7HP", "last_updated": "24/04/2024 11:50:16", "prices": {"B7": 1.557, "E10": 1.4769999999999999}}}, {"type": "Feature", "geometry": {"type": "Point", "coordinates": [-2.7528124, 54.1874536]}, "properties": {"site_id": "gcwh32e2ycd9", "brand": "ESSO", "address": "Mossdale, A6 Road, Burton, Carnforth.", "postcode": "LA5 9RW", "last_updated": "24/04/2024 11:50:16", "prices": {"B7": 1.527, "E10": 1.4969999999999999}}}, {"type": "Feature", "geometry": {"type": "Point", "coordinates": [-0.4245391, 52.0256396]}, "properties": {"site_id": "gcpxyqfz7d0z", "brand": "JET ", "address": "New County, Bedford Road, Clophill, Bedfordshire.", "postcode": "MK45 4AP", "last_updated": "24/04/2024 11:50:16", "prices": {"B7": 1.5590000000000002, "E10": 1.479}}}, {"type": "Feature", "geometry": {"type": "Point", "coordinates": [-1.141752, 52.6582252]}, "properties": {"site_id": "gcr5w40s7k85", "brand": "TEXACO", "address": "Parker Drive, 126 Parker Drive, Leicester.", "postcode": "LE4 0JF", "last_updated": "24/04/2024 11:50:16", "prices": {"B7": 1.569, "E10": 1.499}}}, {"type": "Feature", "geometry": {"type": "Point", "coordinates": [-2.2380335, 51.8642112]}, "properties": {"site_id": "gcnrj1d6fj8v", "brand": "TEXACO", "address": "Parklands, A40 Northern Bypass, Longford, Gloucestershire.", "postcode": "GL2 9DJ", "last_updated": "24/04/2024 11:50:16", "prices": {"B7": 1.567, "E10": 1.4969999999999999}}}, {"type": "Feature", "geometry": {"type": "Point", "coordinates": [-4.9853626, 51.8054719]}, "properties": {"site_id": "gchqwwcu8xgv", "brand": "TEXACO", "address": "Pelcomb, St Davids Road, Keeston, Haverfordwest.", "postcode": "SA62 6ED", "last_updated": "24/04/2024 11:50:16", "prices": {"B7": 1.569, "E10": 1.489}}}, {"type": "Feature", "geometry": {"type": "Point", "coordinates": [-0.4384256, 52.1483672]}, "properties": {"site_id": "gcr8wj2drbjy", "brand": "JET ", "address": "Putnoe, 122 Queens Drive, Putnoe, Bedfordshire.", "postcode": "MK41 9JF", "last_updated": "24/04/2024 11:50:16", "prices": {"B7": 1.579, "E10": 1.499}}}, {"type": "Feature", "geometry": {"type": "Point", "coordinates": [-3.7048278, 56.0151661]}, "properties": {"site_id": "gcvqetnpzrb0", "brand": "BP", "address": "Refinery, 176 Bo'Ness Road, Grangemouth.", "postcode": "FK3 9BU", "last_updated": "24/04/2024 11:50:16", "prices": {"B7": 1.5490000000000002, "E10": 1.469}}}, {"type": "Feature", "geometry": {"type": "Point", "coordinates": [-3.382804, 52.2318917]}, "properties": {"site_id": "gcm95h88yfqs", "brand": "TEXACO", "address": "Ridgebourne, Wellington Road, Llandrindod Wells, Powys.", "postcode": "LD1 5NB", "last_updated": "24/04/2024 11:50:16", "prices": {"B7": 1.569, "E10": 1.489}}}, {"type": "Feature", "geometry": {"type": "Point", "coordinates": [-2.2472656, 50.8976325]}, "properties": {"site_id": "gcn3sces4ymp", "brand": "TEXACO", "address": "Shillingstone, Blandford Road, Shillingstone, Dorset.", "postcode": "DT11 0SF", "last_updated": "24/04/2024 11:50:16", "prices": {"B7": 1.579, "E10": 1.499}}}, {"type": "Feature", "geometry": {"type": "Point", "coordinates": [-1.6918617, 53.3375405]}, "properties": {"site_id": "gcqz3tb18y23", "brand": "TEXACO", "address": "Sickleholme,Hathersage Road, Bamford, Hope Valley.", "postcode": "S33 0EB", "last_updated": "24/04/2024 11:50:16", "prices": {"B7": 1.599, "E10": 1.489}}}, {"type": "Feature", "geometry": {"type": "Point", "coordinates": [-1.3909309, 52.2644375]}, "properties": {"site_id": "gcr1267nkvqs", "brand": "BP", "address": "Southam, Coventry Road, Southam, Warwickshire.", "postcode": "CV47 1BG", "last_updated": "24/04/2024 11:50:16", "prices": {"B7": 1.589, "E10": 1.499}}}, {"type": "Feature", "geometry": {"type": "Point", "coordinates": [-2.6169763, 51.4436961]}, "properties": {"site_id": "gcnhsmn3hpcr", "brand": "TEXACO", "address": "Southville, Coronation Road, Southville, Bristol.", "postcode": "BS3 1RN", "last_updated": "24/04/2024 11:50:16", "prices": {"B7": 1.579, "E10": 1.499}}}, {"type": "Feature", "geometry": {"type": "Point", "coordinates": [-2.1535712, 57.1371259]}, "properties": {"site_id": "gfnmncrzfhm0", "brand": "BP", "address": "Springfield Road, Springfield Road, Aberdeen.", "postcode": "AB15 7SE", "last_updated": "24/04/2024 11:50:16", "prices": {"B7": 1.5590000000000002, "E10": 1.499}}}, {"type": "Feature", "geometry": {"type": "Point", "coordinates": [1.4476683, 52.1884054]}, "properties": {"site_id": "u130buw5mpg6", "brand": "SHELL", "address": "Stratford, Main Road, Saxmundham.", "postcode": "IP17 1LF", "last_updated": "24/04/2024 11:50:16", "prices": {"B7": 1.527, "E10": 1.4969999999999999}}}, {"type": "Feature", "geometry": {"type": "Point", "coordinates": [-4.3719214, 51.8479055]}, "properties": {"site_id": "gchyuw87yy5q", "brand": "TEXACO", "address": "Tenby Road, Lysonnen Road, Carmarthen.", "postcode": "SA33 5DT", "last_updated": "24/04/2024 11:50:16", "prices": {"B7": 1.569, "E10": 1.469}}}, {"type": "Feature", "geometry": {"type": "Point", "coordinates": [-2.7953168, 54.0256039]}, "properties": {"site_id": "gcw527h9bqs9", "brand": "SHELL", "address": "Toll Bar, 166 Scotforth Rd, Lancaster.", "postcode": "LA1 4NS", "last_updated": "24/04/2024 11:50:16", "prices": {"B7": 1.589, "E10": 1.499}}}, {"type": "Feature", "geometry": {"type": "Point", "coordinates": [-2.2318888, 51.8929498]}, "properties": {"site_id": "gcnrjnyf35nb", "brand": "BP", "address": "Twigworth, Tewksbury Road, Gloucester, Gloucestershire.", "postcode": "GL2 9PG", "last_updated": "24/04/2024 11:50:16", "prices": {"B7": 1.567, "E10": 1.4969999999999999}}}, {"type": "Feature", "geometry": {"type": "Point", "coordinates": [-1.2962651, 53.3393142]}, "properties": {"site_id": "gcrp6w0h4bfc", "brand": "BP", "address": "Wales Bar, Mansfield Road, Walesbar, Sheffield.", "postcode": "S26 5PE", "last_updated": "24/04/2024 11:50:16", "prices": {"B7": 1.557, "E10": 1.4769999999999999}}}, {"type": "Feature", "geometry": {"type": "Point", "coordinates": [-0.4853114, 53.2505838]}, "properties": {"site_id": "gcrwuvyx5kmf", "brand": "JET ", "address": "Wragby Road, Wragby Road East, Lincoln.", "postcode": "LN2 4QY", "last_updated": "24/04/2024 11:50:16", "prices": {"B7": 1.557, "E10": 1.4969999999999999}}}, {"type": "Feature", "geometry": {"type": "Point", "coordinates": [-0.7904087, 51.8157932]}, "properties": {"site_id": "gcpqy0b2y5uw", "brand": "BP", "address": "Oakfield Road, Aylesbury, Buckinghamshire, South East", "postcode": "HP20 1JJ", "last_updated": "24/04/2024 11:50:16", "prices": {"B7": 1.547, "E10": 1.4569999999999999}}}, {"type": "Feature", "geometry": {"type": "Point", "coordinates": [-1.484944, 52.391463]}, "properties": {"site_id": "gcqfn1wd5k4j", "brand": "ASDA", "address": "Abbey Park - North London Road, Coventry", "postcode": "CV3 4AR", "last_updated": "25/04/2024 00:00:00", "prices": {"B7": 1.577, "E10": 1.4869999999999999}}}, {"type": "Feature", "geometry": {"type": "Point", "coordinates": [-3.416855, 51.702332]}, "properties": {"site_id": "gcjw4hhp6ywh", "brand": "ASDA", "address": "Riverside Retail Park, Aberdare", "postcode": "CF44 0AH", "last_updated": "25/04/2024 00:00:00", "prices": {"B7": 1.557, "E10": 1.4569999999999999}}}, {"type": "Feature", "geometry": {"type": "Point", "coordinates": [-3.862503, 56.620278]}, "properties": {"site_id": "gfj6057mn7se", "brand": "ASDA", "address": "46 Dunkeld Street, Aberfeldy", "postcode": "PH15 2AF", "last_updated": "25/04/2024 00:00:00", "prices": {"B7": 1.597, "E10": 1.517}}}, {"type": "Feature", "geometry": {"type": "Point", "coordinates": [-2.372825, 53.756449]}, "properties": {"site_id": "gcw3f404j0sc", "brand": "ASDA", "address": "Hyndburn Road, Accrington", "postcode": "BB5 1PY", "last_updated": "25/04/2024 00:00:00", "prices": {"B7": 1.517, "E10": 1.4569999999999999}}}, {"type": "Feature", "geometry": {"type": "Point", "coordinates": [-1.57766, 51.650861]}, "properties": {"site_id": "gcnvgfzs2pgq", "brand": "ASDA", "address": "Park Road, Faringdon", "postcode": "SN7 7BU", "last_updated": "25/04/2024 00:00:00", "prices": {"B7": 1.547, "E10": 1.507}}}, {"type": "Feature", "geometry": {"type": "Point", "coordinates": [-1.396272, 53.114062]}, "properties": {"site_id": "gcrn076n5e8h", "brand": "ASDA", "address": "Chesterfield Rd, Alfreton", "postcode": "DE55 6AW", "last_updated": "25/04/2024 00:00:00", "prices": {"B7": 1.587, "E10": 1.507}}}, {"type": "Feature", "geometry": {"type": "Point", "coordinates": [-2.948134, 53.489995]}, "properties": {"site_id": "gctbkcge1y1u", "brand": "ASDA", "address": "Ormskirk Road, Liverpool", "postcode": "L10 3LN", "last_updated": "25/04/2024 00:00:00", "prices": {"B7": 1.537, "E10": 1.4569999999999999}}}, {"type": "Feature", "geometry": {"type": "Point", "coordinates": [0.033447, 51.562279]}, "properties": {"site_id": "u10j2f87ut0h", "brand": "ASDA", "address": "19 Aldersbrook Road, Greater London", "postcode": "E12 5HH", "last_updated": "25/04/2024 00:00:00", "prices": {"B7": 1.557, "E10": 1.4969999999999999}}}, {"type": "Feature", "geometry": {"type": "Point", "coordinates": [-3.78232, 56.1194]}, "properties": {"site_id": "gcvr1zcguq8c", "brand": "ASDA", "address": "Whins Road, Alloa", "postcode": "FK10 3SD", "last_updated": "25/04/2024 00:00:00", "prices": {"B7": 1.557, "E10": 1.4669999999999999}}}, {"type": "Feature", "geometry": {"type": "Point", "coordinates": [-2.351795, 53.38873]}, "properties": {"site_id": "gcqrdrnfh9nk", "brand": "ASDA", "address": "Dunham Road, Altrincham", "postcode": "WA14 4NX", "last_updated": "25/04/2024 00:00:00", "prices": {"B7": 1.577, "E10": 1.4969999999999999}}}, {"type": "Feature", "geometry": {"type": "Point", "coordinates": [-2.254111, 53.332448]}, "properties": {"site_id": "gcqrksxqfqs8", "brand": "ASDA", "address": "Altrincham Road, Wilmslow", "postcode": "SK9 5NN", "last_updated": "25/04/2024 00:00:00", "prices": {"B7": 1.577, "E10": 1.4869999999999999}}}, {"type": "Feature", "geometry": {"type": "Point", "coordinates": [-2.364485, 53.398236]}, "properties": {"site_id": "gcqrf0z0djjt", "brand": "ASDA", "address": "90 George Richards Way, Broadheath, Altrincham", "postcode": "WA14 5ZR", "last_updated": "25/04/2024 00:00:00", "prices": {"B7": 1.547, "E10": 1.4669999999999999}}}, {"type": "Feature", "geometry": {"type": "Point", "coordinates": [-1.531034, 53.856572]}, "properties": {"site_id": "gcwfmhm1kf01", "brand": "ASDA", "address": "495 Harrogate Road, Leeds", "postcode": "LS17 7DA", "last_updated": "25/04/2024 00:00:00", "prices": {"B7": 1.547, "E10": 1.4869999999999999}}}, {"type": "Feature", "geometry": {"type": "Point", "coordinates": [-1.756689, 51.177378]}, "properties": {"site_id": "gcng0h8cf4v2", "brand": "ASDA", "address": "Mid Summer Place, Salisbury", "postcode": "SP4 7SQ", "last_updated": "25/04/2024 00:00:00", "prices": {"B7": 1.537, "E10": 1.4369999999999998}}}, {"type": "Feature", "geometry": {"type": "Point", "coordinates": [-1.579758, 55.065163]}, "properties": {"site_id": "gcyck033zj0b", "brand": "ASDA", "address": "Moorfarm Roundabout, Cramlington", "postcode": "NE23 7QA", "last_updated": "25/04/2024 00:00:00", "prices": {"B7": 1.577, "E10": 1.4869999999999999}}}, {"type": "Feature", "geometry": {"type": "Point", "coordinates": [-2.612557, 56.550282]}, "properties": {"site_id": "gfn1sw82gxsx", "brand": "ASDA", "address": "Westway Retail Park, Dundee Road, Arbroath", "postcode": "DD11 2NQ", "last_updated": "25/04/2024 00:00:00", "prices": {"B7": 1.537, "E10": 1.4769999999999999}}}, {"type": "Feature", "geometry": {"type": "Point", "coordinates": [-4.81792, 55.63851]}, "properties": {"site_id": "gcusd2vbmqxg", "brand": "ASDA", "address": "Harbour Road, Adrossan", "postcode": "KA22 8BZ", "last_updated": "25/04/2024 00:00:00", "prices": {"B7": 1.537, "E10": 1.4569999999999999}}}, {"type": "Feature", "geometry": {"type": "Point", "coordinates": [-1.858839, 52.510235]}, "properties": {"site_id": "gcqdtxr60tsb", "brand": "ASDA", "address": "Powick Road, Birmingham", "postcode": "B23 7PG", "last_updated": "25/04/2024 00:00:00", "prices": {"B7": 1.567, "E10": 1.4769999999999999}}}, {"type": "Feature", "geometry": {"type": "Point", "coordinates": [-3.690379, 55.886474]}, "properties": {"site_id": "gcvmujb97yvx", "brand": "ASDA", "address": "Station Road, Armadale", "postcode": "EH48 2JS", "last_updated": "25/04/2024 00:00:00", "prices": {"B7": 1.557, "E10": 1.4769999999999999}}}, {"type": "Feature", "geometry": {"type": "Point", "coordinates": [-1.576425, 53.798224]}, "properties": {"site_id": "gcwfh1sjpc9d", "brand": "ASDA", "address": "Armley Road, Leeds", "postcode": "LS12 2QN", "last_updated": "25/04/2024 00:00:00", "prices": {"B7": 1.547, "E10": 1.4969999999999999}}}, {"type": "Feature", "geometry": {"type": "Point", "coordinates": [-1.128233, 53.005687]}, "properties": {"site_id": "gcrjw35ngpww", "brand": "ASDA", "address": "111-127 Front Street, Arnold, Nottingham", "postcode": "NG5 7ED", "last_updated": "25/04/2024 00:00:00", "prices": {"B7": 1.547, "E10": 1.4469999999999998}}}, {"type": "Feature", "geometry": {"type": "Point", "coordinates": [-3.078403, 53.370086]}, "properties": {"site_id": "gcmz9gwrk107", "brand": "ASDA", "address": "Woodchurch Road, Birkenhead", "postcode": "CH49 5PD", "last_updated": "25/04/2024 00:00:00", "prices": {"B7": 1.547, "E10": 1.4569999999999999}}}, {"type": "Feature", "geometry": {"type": "Point", "coordinates": [-0.67253, 51.410261]}, "properties": {"site_id": "gcps2xp0j8gn", "brand": "ASDA", "address": "High Street, Ascot", "postcode": "SL5 7HB", "last_updated": "25/04/2024 00:00:00", "prices": {"B7": 1.577, "E10": 1.4969999999999999}}}, {"type": "Feature", "geometry": {"type": "Point", "coordinates": [-1.449282, 52.751774]}, "properties": {"site_id": "gcqunfb7vc29", "brand": "ASDA", "address": "Ashby Gateway, Ashby de la Zouch", "postcode": "LE65 1JP", "last_updated": "25/04/2024 00:00:00", "prices": {"B7": 1.577, "E10": 1.4769999999999999}}}, {"type": "Feature", "geometry": {"type": "Point", "coordinates": [-1.55608, 55.170054]}, "properties": {"site_id": "gcycue3w57qp", "brand": "ASDA", "address": "Newbiggin Road, Ashington", "postcode": "NE63 0XF", "last_updated": "25/04/2024 00:00:00", "prices": {"B7": 1.607, "E10": 1.4869999999999999}}}, {"type": "Feature", "geometry": {"type": "Point", "coordinates": [-1.571892, 55.184674]}, "properties": {"site_id": "gcycunp936gs", "brand": "ASDA", "address": "Portland Park, Lintonville Terrace, Ashington", "postcode": "NE63 9XG", "last_updated": "25/04/2024 00:00:00", "prices": {"B7": 1.577, "E10": 1.4569999999999999}}}, {"type": "Feature", "geometry": {"type": "Point", "coordinates": [-2.094949, 53.483829]}, "properties": {"site_id": "gcw822dkfw37", "brand": "ASDA", "address": "Cavendish Street, Ashton-Under-Lyne", "postcode": "OL6 7PF", "last_updated": "25/04/2024 00:00:00", "prices": {"B7": 1.537, "E10": 1.4369999999999998}}}, {"type": "Feature", "geometry": {"type": "Point", "coordinates": [-2.447146, 53.502278]}, "properties": {"site_id": "gcw227f137e4", "brand": "ASDA", "address": "Manchester Road, Manchester", "postcode": "M29 7BQ", "last_updated": "25/04/2024 00:00:00", "prices": {"B7": 1.567, "E10": 1.4869999999999999}}}, {"type": "Feature", "geometry": {"type": "Point", "coordinates": [-1.305561, 53.363698]}, "properties": {"site_id": "gcrpd69644rh", "brand": "ASDA", "address": "Worksop Road, Sheffield", "postcode": "S26 2EA", "last_updated": "25/04/2024 00:00:00", "prices": {"B7": 1.567, "E10": 1.4869999999999999}}}, {"type": "Feature", "geometry": {"type": "Point", "coordinates": [-1.89097, 52.488816]}, "properties": {"site_id": "gcqdsgr183jg", "brand": "ASDA", "address": "305 Corporation Street, Birmingham", "postcode": "B4 7DT", "last_updated": "25/04/2024 00:00:00", "prices": {"B7": 1.587, "E10": 1.4869999999999999}}}, {"type": "Feature", "geometry": {"type": "Point", "coordinates": [-4.596262, 55.480174]}, "properties": {"site_id": "gcuex7v522d1", "brand": "ASDA", "address": "Liberator Drive, Heathfield Retail Park, Ayr", "postcode": "KA8 9BF", "last_updated": "25/04/2024 00:00:00", "prices": {"B7": 1.537, "E10": 1.4469999999999998}}}, {"type": "Feature", "geometry": {"type": "Point", "coordinates": [-5.998971, 54.753845]}, "properties": {"site_id": "gcexrrxsjt5h", "brand": "ASDA", "address": "Park Street, Ballyclare", "postcode": "BT39 9DQ", "last_updated": "25/04/2024 00:00:00", "prices": {"B7": 1.517, "E10": 1.4369999999999998}}}, {"type": "Feature", "geometry": {"type": "Point", "coordinates": [-6.270892, 54.869817]}, "properties": {"site_id": "gcg81k9xve76", "brand": "ASDA", "address": "121 Broughshane Street, Ballymena", "postcode": "BT43 6EE", "last_updated": "25/04/2024 00:00:00", "prices": {"B7": 1.507, "E10": 1.4269999999999998}}}, {"type": "Feature", "geometry": {"type": "Point", "coordinates": [-1.327494, 52.042603]}, "properties": {"site_id": "gcr01ccvbz80", "brand": "ASDA", "address": "Oxford Road, Banbury", "postcode": "OX15 4AB", "last_updated": "25/04/2024 00:00:00", "prices": {"B7": 1.527, "E10": 1.4869999999999999}}}, {"type": "Feature", "geometry": {"type": "Point", "coordinates": [-4.105557, 53.203499]}, "properties": {"site_id": "gcmne91eyyy3", "brand": "ASDA", "address": "Junction A5/55 Expressway, Bangor", "postcode": "LL57 4BG", "last_updated": "25/04/2024 00:00:00", "prices": {"B7": 1.587, "E10": 1.4969999999999999}}}, {"type": "Feature", "geometry": {"type": "Point", "coordinates": [-4.131761, 53.224381]}, "properties": {"site_id": "gcmnccpwj6yf", "brand": "ASDA", "address": "Farrar Road, Bangor", "postcode": "LL57 1LJ", "last_updated": "25/04/2024 00:00:00", "prices": {"B7": 1.557, "E10": 1.4669999999999999}}}, {"type": "Feature", "geometry": {"type": "Point", "coordinates": [-5.668741, 54.660222]}, "properties": {"site_id": "gceyzn84ugbk", "brand": "ASDA", "address": "89-105 Main St, Bangor", "postcode": "BT20 4SD", "last_updated": "25/04/2024 00:00:00", "prices": {"B7": 1.507, "E10": 1.4269999999999998}}}, {"type": "Feature", "geometry": {"type": "Point", "coordinates": [-1.401674, 54.893194]}, "properties": {"site_id": "gcz02151s37w", "brand": "ASDA", "address": "Durham Road, Sunderland", "postcode": "SR2 7RB", "last_updated": "25/04/2024 00:00:00", "prices": {"B7": 1.557, "E10": 1.4869999999999999}}}, {"type": "Feature", "geometry": {"type": "Point", "coordinates": [-1.979179, 52.442849]}, "properties": {"site_id": "gcqd6fyv9z95", "brand": "ASDA", "address": "51 Barnes Hill, Birmingham", "postcode": "B29 5UP", "last_updated": "25/04/2024 00:00:00", "prices": {"B7": 1.507, "E10": 1.4369999999999998}}}, {"type": "Feature", "geometry": {"type": "Point", "coordinates": [-1.473065, 53.560015]}, "properties": {"site_id": "gcwbwqmvqkzc", "brand": "ASDA", "address": "Old Mill Lane, Barnsley", "postcode": "S71 1LN", "last_updated": "25/04/2024 00:00:00", "prices": {"B7": 1.557, "E10": 1.4769999999999999}}}, {"type": "Feature", "geometry": {"type": "Point", "coordinates": [-4.065875, 51.076563]}, "properties": {"site_id": "gcj4e6qg3fzb", "brand": "ASDA", "address": "Anchorwood Retail Park, Taw Wharf, Barnstaple", "postcode": "EX31 2BN", "last_updated": "25/04/2024 00:00:00", "prices": {"B7": 1.557, "E10": 1.4769999999999999}}}, {"type": "Feature", "geometry": {"type": "Point", "coordinates": [-2.512565, 53.263913]}, "properties": {"site_id": "gcqpnb6c70xz", "brand": "ASDA", "address": "23-29 Leicester Street, Barons Quay, Northwich", "postcode": "CW9 5LG", "last_updated": "25/04/2024 00:00:00", "prices": {"B7": 1.537, "E10": 1.4569999999999999}}}, {"type": "Feature", "geometry": {"type": "Point", "coordinates": [-4.391594, 55.800762]}, "properties": {"site_id": "gcuvkn6f6ddu", "brand": "ASDA", "address": "4 Church Road, Barrhead", "postcode": "G78 1FA", "last_updated": "25/04/2024 00:00:00", "prices": {"B7": 1.527, "E10": 1.4469999999999998}}}, {"type": "Feature", "geometry": {"type": "Point", "coordinates": [-2.395527, 53.84042]}, "properties": {"site_id": "gcw633rdurqc", "brand": "ASDA", "address": "Holm Road, Clitheroe", "postcode": "BB7 9WF", "last_updated": "25/04/2024 00:00:00", "prices": {"B7": 1.547, "E10": 1.4769999999999999}}}, {"type": "Feature", "geometry": {"type": "Point", "coordinates": [-3.236439, 54.121812]}, "properties": {"site_id": "gcteyke66d8h", "brand": "ASDA", "address": "Walney Road, Barrow-In-Furness", "postcode": "LA14 5UG", "last_updated": "25/04/2024 00:00:00", "prices": {"B7": 1.567, "E10": 1.4869999999999999}}}, {"type": "Feature", "geometry": {"type": "Point", "coordinates": [-3.270975, 51.397238]}, "properties": {"site_id": "gcjsmkt55ek2", "brand": "ASDA", "address": "Ffordd Y Mileniwm, Barry", "postcode": "CF62 5AT", "last_updated": "25/04/2024 00:00:00", "prices": {"B7": 1.587, "E10": 1.4869999999999999}}}, {"type": "Feature", "geometry": {"type": "Point", "coordinates": [-0.454789, 53.680519]}, "properties": {"site_id": "gcx9msxdqdh6", "brand": "ASDA", "address": "A1077 Ferriby Road, Barton-Upon-Humber", "postcode": "DN18 5LQ", "last_updated": "25/04/2024 00:00:00", "prices": {"B7": 1.557, "E10": 1.4969999999999999}}}, {"type": "Feature", "geometry": {"type": "Point", "coordinates": [0.460496, 51.569448]}, "properties": {"site_id": "u10m6eckyrvs", "brand": "ASDA", "address": "Eastgate Shopping Centre, Basildon", "postcode": "SS14 1AE", "last_updated": "25/04/2024 00:00:00", "prices": {"B7": 1.557, "E10": 1.4769999999999999}}}, {"type": "Feature", "geometry": {"type": "Point", "coordinates": [-1.080943, 51.253475]}, "properties": {"site_id": "gcp5x64y16yq", "brand": "ASDA", "address": "Grove Road, Basingstoke", "postcode": "RG21 3AX", "last_updated": "25/04/2024 00:00:00", "prices": {"B7": 1.567, "E10": 1.4869999999999999}}}, {"type": "Feature", "geometry": {"type": "Point", "coordinates": [-1.869557, 50.720019]}, "properties": {"site_id": "gcn8t3q6ku0d", "brand": "ASDA", "address": "Bath Road, Bournemouth", "postcode": "BH1 2NJ", "last_updated": "25/04/2024 00:00:00", "prices": {"B7": 1.577, "E10": 1.4969999999999999}}}, {"type": "Feature", "geometry": {"type": "Point", "coordinates": [-1.202709, 51.958466]}, "properties": {"site_id": "gcppsu00f9ys", "brand": "ASDA", "address": "Baynards Green Service Station, A43, Bicester", "postcode": "OX27 7SG", "last_updated": "25/04/2024 00:00:00", "prices": {"B7": 1.6369999999999998, "E10": 1.557}}}, {"type": "Feature", "geometry": {"type": "Point", "coordinates": [-2.759965, 52.682076]}, "properties": {"site_id": "gcq59nnuq9um", "brand": "ASDA", "address": "Hereford Road, Shrewsbury", "postcode": "SY3 0DA", "last_updated": "25/04/2024 00:00:00", "prices": {"B7": 1.547, "E10": 1.4969999999999999}}}, {"type": "Feature", "geometry": {"type": "Point", "coordinates": [-4.318835, 55.917466]}, "properties": {"site_id": "gcuyjerngg5j", "brand": "ASDA", "address": "80 Milngavie Road, Glasgow", "postcode": "G61 2TX", "last_updated": "25/04/2024 00:00:00", "prices": {"B7": 1.577, "E10": 1.4669999999999999}}}, {"type": "Feature", "geometry": {"type": "Point", "coordinates": [0.058262, 51.515668]}, "properties": {"site_id": "u10j164kt8e3", "brand": "ASDA", "address": "Tollgate Road, Beckton", "postcode": "E6 5JP", "last_updated": "25/04/2024 00:00:00", "prices": {"B7": 1.557, "E10": 1.4669999999999999}}}, {"type": "Feature", "geometry": {"type": "Point", "coordinates": [-2.595176, 51.443957]}, "properties": {"site_id": "gcnhsvn6b08s", "brand": "ASDA", "address": "East Street, Bristol", "postcode": "BS3 4JY", "last_updated": "25/04/2024 00:00:00", "prices": {"B7": 1.557, "E10": 1.4769999999999999}}}, {"type": "Feature", "geometry": {"type": "Point", "coordinates": [-1.563835, 53.7659]}, "properties": {"site_id": "gcwcukh7f4v1", "brand": "ASDA", "address": "Old Lane, Beeston, Leeds", "postcode": "LS11 8AG", "last_updated": "25/04/2024 00:00:00", "prices": {"B7": 1.517, "E10": 1.4369999999999998}}}, {"type": "Feature", "geometry": {"type": "Point", "coordinates": [-0.831862, 51.721848]}, "properties": {"site_id": "gcpqjpdmdxdk", "brand": "ASDA", "address": "Bell Street, Princes Risborough", "postcode": "HP27 0DG", "last_updated": "25/04/2024 00:00:00", "prices": {"B7": 1.537, "E10": 1.4969999999999999}}}, {"type": "Feature", "geometry": {"type": "Point", "coordinates": [-0.573568, 51.260925]}, "properties": {"site_id": "gcpedgy96sdd", "brand": "ASDA", "address": "Woking Road, Guildford", "postcode": "GU1 1NH", "last_updated": "25/04/2024 00:00:00", "prices": {"B7": 1.577, "E10": 1.4969999999999999}}}, {"type": "Feature", "geometry": {"type": "Point", "coordinates": [-0.317093, 51.601277]}, "properties": {"site_id": "gcpv8c9p6urb", "brand": "ASDA", "address": "Belmont Circle, Harrow", "postcode": "HA3 8SF", "last_updated": "25/04/2024 00:00:00", "prices": {"B7": 1.567, "E10": 1.4769999999999999}}}, {"type": "Feature", "geometry": {"type": "Point", "coordinates": [-1.536797, 55.020552]}, "properties": {"site_id": "gcycj00tb2s9", "brand": "ASDA", "address": "Whitley Road, Newcastle upon Tyne", "postcode": "NE12 9SJ", "last_updated": "25/04/2024 00:00:00", "prices": {"B7": 1.567, "E10": 1.4769999999999999}}}, {"type": "Feature", "geometry": {"type": "Point", "coordinates": [-0.063939, 51.522486]}, "properties": {"site_id": "gcpvne36gtnz", "brand": "ASDA", "address": "112 Vallance Road, London", "postcode": "E1 5BW", "last_updated": "25/04/2024 00:00:00", "prices": {"B7": 1.537, "E10": 1.4569999999999999}}}, {"type": "Feature", "geometry": {"type": "Point", "coordinates": [-1.72183, 52.444819]}, "properties": {"site_id": "gcqf2gm95zy5", "brand": "ASDA", "address": "Coventry Road, Solihull", "postcode": "B92 0EH", "last_updated": "25/04/2024 00:00:00", "prices": {"B7": 1.607, "E10": 1.507}}}, {"type": "Feature", "geometry": {"type": "Point", "coordinates": [-4.23816, 51.00771]}, "properties": {"site_id": "gchfpteqfd3j", "brand": "ASDA", "address": "Clovelly Road, Bideford", "postcode": "EX39 3QU", "last_updated": "25/04/2024 00:00:00", "prices": {"B7": 1.567, "E10": 1.4769999999999999}}}, {"type": "Feature", "geometry": {"type": "Point", "coordinates": [0.033792, 51.314633]}, "properties": {"site_id": "u105bv8959tq", "brand": "ASDA", "address": "141 Main Road, Westerham", "postcode": "TN16 3DX", "last_updated": "25/04/2024 00:00:00", "prices": {"B7": 1.577, "E10": 1.4869999999999999}}}, {"type": "Feature", "geometry": {"type": "Point", "coordinates": [-2.71635, 53.523795]}, "properties": {"site_id": "gcw06pwp93q4", "brand": "ASDA", "address": "275 Upholland Road, Wigan", "postcode": "WN5 7DN", "last_updated": "25/04/2024 00:00:00", "prices": {"B7": 1.547, "E10": 1.4869999999999999}}}, {"type": "Feature", "geometry": {"type": "Point", "coordinates": [-2.186554, 52.624197]}, "properties": {"site_id": "gcq7qhd1msfg", "brand": "ASDA", "address": "Wolverhampton Road, Codsall", "postcode": "WV8 1PD", "last_updated": "25/04/2024 00:00:00", "prices": {"B7": 1.537, "E10": 1.4869999999999999}}}, {"type": "Feature", "geometry": {"type": "Point", "coordinates": [-2.526637, 53.414385]}, "properties": {"site_id": "gcqpy7w7ewjs", "brand": "ASDA", "address": "1 Dewhurst Road, Warrington", "postcode": "WA3 7PG", "last_updated": "25/04/2024 00:00:00", "prices": {"B7": 1.537, "E10": 1.4669999999999999}}}, {"type": "Feature", "geometry": {"type": "Point", "coordinates": [-1.427897, 53.21854]}, "properties": {"site_id": "gcqyz80hrwft", "brand": "ASDA", "address": "Derby Road, Chesterfield", "postcode": "S40 2EU", "last_updated": "25/04/2024 00:00:00", "prices": {"B7": 1.577, "E10": 1.4969999999999999}}}, {"type": "Feature", "geometry": {"type": "Point", "coordinates": [-3.053543, 56.493077]}, "properties": {"site_id": "gfjc6s22p2cn", "brand": "ASDA", "address": "Birkhill Auto Point, Dundee", "postcode": "DD2 5RG", "last_updated": "25/04/2024 00:00:00", "prices": {"B7": 1.577, "E10": 1.507}}}, {"type": "Feature", "geometry": {"type": "Point", "coordinates": [-1.67133, 54.65803]}, "properties": {"site_id": "gcwycyjns2mb", "brand": "ASDA", "address": "South Church Road, Bishop Auckland", "postcode": "DL14 7LB", "last_updated": "25/04/2024 00:00:00", "prices": {"B7": 1.537, "E10": 1.4369999999999998}}}, {"type": "Feature", "geometry": {"type": "Point", "coordinates": [-4.214598, 55.913992]}, "properties": {"site_id": "gcvn04g48exf", "brand": "ASDA", "address": "276 Kirkintilloch Road, Glasgow", "postcode": "G64 2PT", "last_updated": "25/04/2024 00:00:00", "prices": {"B7": 1.567, "E10": 1.4669999999999999}}}, {"type": "Feature", "geometry": {"type": "Point", "coordinates": [-2.293848, 53.570807]}, "properties": {"site_id": "gcw2gb89u16v", "brand": "ASDA", "address": "530 Manchester Road, Bury", "postcode": "BL9 9ST", "last_updated": "25/04/2024 00:00:00", "prices": {"B7": 1.577, "E10": 1.4969999999999999}}}, {"type": "Feature", "geometry": {"type": "Point", "coordinates": [-3.017296, 53.796873]}, "properties": {"site_id": "gctf53d64e3x", "brand": "ASDA", "address": "Cherry Tree Road, Blackpool", "postcode": "FY4 4QH", "last_updated": "25/04/2024 00:00:00", "prices": {"B7": 1.547, "E10": 1.4669999999999999}}}, {"type": "Feature", "geometry": {"type": "Point", "coordinates": [-3.193855, 51.668049]}, "properties": {"site_id": "gcjtzmfk1y3j", "brand": "ASDA", "address": "High Street, Blackwood", "postcode": "NP12 0NT", "last_updated": "25/04/2024 00:00:00", "prices": {"B7": 1.547, "E10": 1.4769999999999999}}}, {"type": "Feature", "geometry": {"type": "Point", "coordinates": [-4.091449, 55.779669]}, "properties": {"site_id": "gcvj6fw2m0cc", "brand": "ASDA", "address": "East Ave, Blantyre", "postcode": "G72 0JB", "last_updated": "25/04/2024 00:00:00", "prices": {"B7": 1.587, "E10": 1.507}}}, {"type": "Feature", "geometry": {"type": "Point", "coordinates": [-4.094542, 55.794753]}, "properties": {"site_id": "gcvj6uws2npw", "brand": "ASDA", "address": "Glasgow Road, Blantyre", "postcode": "G72 0AQ", "last_updated": "25/04/2024 00:00:00", "prices": {"B7": 1.557, "E10": 1.4769999999999999}}}, {"type": "Feature", "geometry": {"type": "Point", "coordinates": [-1.06139, 53.388305]}, "properties": {"site_id": "gcrpxygktuc9", "brand": "ASDA", "address": "Moto Service Area, Hilltop Roundabout, Worksop", "postcode": "S81 8HG", "last_updated": "25/04/2024 00:00:00", "prices": {"B7": 1.7790000000000001, "E10": 1.699}}}, {"type": "Feature", "geometry": {"type": "Point", "coordinates": [-1.55507, 55.127152]}, "properties": {"site_id": "gcycses0uvme", "brand": "ASDA", "address": "Cowpen Road, Blyth", "postcode": "NE24 4LZ", "last_updated": "25/04/2024 00:00:00", "prices": {"B7": 1.557, "E10": 1.4669999999999999}}}, {"type": "Feature", "geometry": {"type": "Point", "coordinates": [-4.70314, 50.47602]}, "properties": {"site_id": "gbuxhumt6s4d", "brand": "ASDA", "address": "Launceston Road, Bodmin", "postcode": "PL31 2AR", "last_updated": "25/04/2024 00:00:00", "prices": {"B7": 1.587, "E10": 1.4969999999999999}}}, {"type": "Feature", "geometry": {"type": "Point", "coordinates": [-1.462712, 54.947773]}, "properties": {"site_id": "gcybwenbxtbz", "brand": "ASDA", "address": "North Road, Boldon Colliery, Newcastle upon Tyne", "postcode": "NE35 9AR", "last_updated": "25/04/2024 00:00:00", "prices": {"B7": 1.537, "E10": 1.4369999999999998}}}, {"type": "Feature", "geometry": {"type": "Point", "coordinates": [-2.433746, 53.600355]}, "properties": {"site_id": "gcw2bteuc2hy", "brand": "ASDA", "address": "Moss Bank Way, Bolton", "postcode": "BL1 8QG", "last_updated": "25/04/2024 00:00:00", "prices": {"B7": 1.557, "E10": 1.4669999999999999}}}, {"type": "Feature", "geometry": {"type": "Point", "coordinates": [-2.96952, 53.46852]}, "properties": {"site_id": "gctbhmtstnt3", "brand": "ASDA", "address": "Orrell Lane, Bootle", "postcode": "L20 6HX", "last_updated": "25/04/2024 00:00:00", "prices": {"B7": 1.527, "E10": 1.4469999999999998}}}, {"type": "Feature", "geometry": {"type": "Point", "coordinates": [-2.998387, 53.451377]}, "properties": {"site_id": "gctb5f88udbe", "brand": "ASDA", "address": "81 Strand Road, Bootle", "postcode": "L20 4BB", "last_updated": "25/04/2024 00:00:00", "prices": {"B7": 1.547, "E10": 1.4569999999999999}}}, {"type": "Feature", "geometry": {"type": "Point", "coordinates": [-0.803559, 51.80977]}, "properties": {"site_id": "gcpqtxx2ybd9", "brand": "ASDA", "address": "Wendover Road, Aylesbury", "postcode": "HP21 9LB", "last_updated": "25/04/2024 00:00:00", "prices": {"B7": 1.527, "E10": 1.4969999999999999}}}, {"type": "Feature", "geometry": {"type": "Point", "coordinates": [-0.032074, 52.979693]}, "properties": {"site_id": "gcrvrk8thdef", "brand": "ASDA", "address": "Lister Way, Boston", "postcode": "PE21 8EQ", "last_updated": "25/04/2024 00:00:00", "prices": {"B7": 1.557, "E10": 1.4669999999999999}}}, {"type": "Feature", "geometry": {"type": "Point", "coordinates": [-4.060971, 55.81522]}, "properties": {"site_id": "gcvj7xmhccb3", "brand": "ASDA", "address": "M74 Southbound, Bothwell", "postcode": "G71 8BG", "last_updated": "25/04/2024 00:00:00", "prices": {"B7": 1.8090000000000002, "E10": 1.709}}}, {"type": "Feature", "geometry": {"type": "Point", "coordinates": [-1.86247, 50.726481]}, "properties": {"site_id": "gcn8td7z1m3p", "brand": "ASDA", "address": "157 Holdenhurst Road, Bournemouth", "postcode": "BH8 8DQ", "last_updated": "25/04/2024 00:00:00", "prices": {"B7": 1.567, "E10": 1.4769999999999999}}}, {"type": "Feature", "geometry": {"type": "Point", "coordinates": [-0.021902, 51.528121]}, "properties": {"site_id": "gcpvpkrumb3n", "brand": "ASDA", "address": "127-131 Bow Road, London", "postcode": "E3 2AN", "last_updated": "25/04/2024 00:00:00", "prices": {"B7": 1.567, "E10": 1.4869999999999999}}}, {"type": "Feature", "geometry": {"type": "Point", "coordinates": [-1.791265, 53.791855]}, "properties": {"site_id": "gcwdp2bumj8f", "brand": "ASDA", "address": "Cemetery Road, Lidget Green, Bradford", "postcode": "BD7 2QX", "last_updated": "25/04/2024 00:00:00", "prices": {"B7": 1.537, "E10": 1.4469999999999998}}}, {"type": "Feature", "geometry": {"type": "Point", "coordinates": [-1.728379, 53.772115]}, "properties": {"site_id": "gcwcbsfws475", "brand": "ASDA", "address": "Rooley Lane, Bradford", "postcode": "BD4 7SR", "last_updated": "25/04/2024 00:00:00", "prices": {"B7": 1.537, "E10": 1.4469999999999998}}}, {"type": "Feature", "geometry": {"type": "Point", "coordinates": [-0.558651, 51.19499]}, "properties": {"site_id": "gcpe5rc0qmz5", "brand": "ASDA", "address": "High Street, Guildford", "postcode": "GU5 0HB", "last_updated": "25/04/2024 00:00:00", "prices": {"B7": 1.4869999999999999, "E10": 1.3969999999999998}}}, {"type": "Feature", "geometry": {"type": "Point", "coordinates": [-0.711932, 51.505451]}, "properties": {"site_id": "gcpmpb2fqsby", "brand": "ASDA", "address": "Windsor Road, Maidenhead", "postcode": "SL6 1UZ", "last_updated": "25/04/2024 00:00:00", "prices": {"B7": 1.597, "E10": 1.507}}}, {"type": "Feature", "geometry": {"type": "Point", "coordinates": [-2.95863, 53.42112]}, "properties": {"site_id": "gcmzutnkwpeu", "brand": "ASDA", "address": "Breck Road, Liverpool", "postcode": "L6 5DR", "last_updated": "25/04/2024 00:00:00", "prices": {"B7": 1.517, "E10": 1.4369999999999998}}}, {"type": "Feature", "geometry": {"type": "Point", "coordinates": [-2.11421, 53.422295]}, "properties": {"site_id": "gcqrzvhrrmdq", "brand": "ASDA", "address": "Lower Bents Ln, Stockport", "postcode": "SK6 2NJ", "last_updated": "25/04/2024 00:00:00", "prices": {"B7": 1.577, "E10": 1.4969999999999999}}}, {"type": "Feature", "geometry": {"type": "Point", "coordinates": [-2.745588, 54.657508]}, "properties": {"site_id": "gcwnctcpzxsy", "brand": "ASDA", "address": "Bridge Lane, Penrith", "postcode": "CA11 8JB", "last_updated": "25/04/2024 00:00:00", "prices": {"B7": 1.587, "E10": 1.507}}}, {"type": "Feature", "geometry": {"type": "Point", "coordinates": [-2.123557, 57.124682]}, "properties": {"site_id": "gfnkzxjsgyq6", "brand": "ASDA", "address": "Garth dee Road, Bridge of Dee, Aberdeen, Aberdeen", "postcode": "AB10 7QA", "last_updated": "25/04/2024 00:00:00", "prices": {"B7": 1.567, "E10": 1.4569999999999999}}}, {"type": "Feature", "geometry": {"type": "Point", "coordinates": [-2.398787, 52.527636]}, "properties": {"site_id": "gcq6c6m78jnx", "brand": "ASDA", "address": "Chartwell Business Park, Stourbridge", "postcode": "WV15 6AN", "last_updated": "25/04/2024 00:00:00", "prices": {"B7": 1.547, "E10": 1.4869999999999999}}}, {"type": "Feature", "geometry": {"type": "Point", "coordinates": [-3.00054, 51.13025]}, "properties": {"site_id": "gcjfgezp637j", "brand": "ASDA", "address": "East Quay, Bridgwater", "postcode": "TA6 5AZ", "last_updated": "25/04/2024 00:00:00", "prices": {"B7": 1.517, "E10": 1.4369999999999998}}}, {"type": "Feature", "geometry": {"type": "Point", "coordinates": [-0.210716, 54.095723]}, "properties": {"site_id": "gcxgepyw7yy8", "brand": "ASDA", "address": "Scarborough Road, Bridlington", "postcode": "YO16 7NS", "last_updated": "25/04/2024 00:00:00", "prices": {"B7": 1.577, "E10": 1.4969999999999999}}}, {"type": "Feature", "geometry": {"type": "Point", "coordinates": [-2.117811, 52.481396]}, "properties": {"site_id": "gcq6xf23nj93", "brand": "ASDA", "address": "Pearson Street, Brierley Hill", "postcode": "DY5 3BJ", "last_updated": "25/04/2024 00:00:00", "prices": {"B7": 1.557, "E10": 1.4669999999999999}}}, {"type": "Feature", "geometry": {"type": "Point", "coordinates": [-0.122511, 50.867535]}, "properties": {"site_id": "gcpcmhjp5294", "brand": "ASDA", "address": "Unit 1 Crowhurst Road, off Carden Avenue, Brighton", "postcode": "BN1 8AS", "last_updated": "25/04/2024 00:00:00", "prices": {"B7": 1.587, "E10": 1.4969999999999999}}}, {"type": "Feature", "geometry": {"type": "Point", "coordinates": [-0.104848, 50.812383]}, "properties": {"site_id": "gcpcjd5esfex", "brand": "ASDA", "address": "Brighton Marina, Brighton", "postcode": "BN2 5UT", "last_updated": "25/04/2024 00:00:00", "prices": {"B7": 1.587, "E10": 1.507}}}, {"type": "Feature", "geometry": {"type": "Point", "coordinates": [-1.367121, 53.408092]}, "properties": {"site_id": "gcrpbfevbn85", "brand": "ASDA", "address": "Bawtry Road, Rotherham", "postcode": "S60 5DL", "last_updated": "25/04/2024 00:00:00", "prices": {"B7": 1.587, "E10": 1.507}}}, {"type": "Feature", "geometry": {"type": "Point", "coordinates": [-2.569482, 51.413641]}, "properties": {"site_id": "gcnhmx8fntr6", "brand": "ASDA", "address": "Oatlands Avenue, Bristol", "postcode": "BS14 0ST", "last_updated": "25/04/2024 00:00:00", "prices": {"B7": 1.557, "E10": 1.4669999999999999}}}, {"type": "Feature", "geometry": {"type": "Point", "coordinates": [-2.614594, 51.470139]}, "properties": {"site_id": "gcnhu9b57936", "brand": "ASDA", "address": "Whiteladies Road, Bristol", "postcode": "BS8 2XS", "last_updated": "25/04/2024 00:00:00", "prices": {"B7": 1.557, "E10": 1.4769999999999999}}}, {"type": "Feature", "geometry": {"type": "Point", "coordinates": [-1.290345, 50.916582]}, "properties": {"site_id": "gcp1dmxhzf0b", "brand": "ASDA", "address": "Grange Road, Southampton", "postcode": "SO30 2FU", "last_updated": "25/04/2024 00:00:00", "prices": {"B7": 1.577, "E10": 1.4769999999999999}}}, {"type": "Feature", "geometry": {"type": "Point", "coordinates": [-0.186681, 51.888172]}, "properties": {"site_id": "gcpz5vbq37rz", "brand": "ASDA", "address": "Broadwater Crescent, Stevenage", "postcode": "SG2 8EH", "last_updated": "25/04/2024 00:00:00", "prices": {"B7": 1.567, "E10": 1.507}}}, {"type": "Feature", "geometry": {"type": "Point", "coordinates": [-1.650485, 53.834683]}, "properties": {"site_id": "gcwf62mdx842", "brand": "ASDA", "address": "A6120 Broadway, Horsforth", "postcode": "LS18 4DY", "last_updated": "25/04/2024 00:00:00", "prices": {"B7": 1.557, "E10": 1.4969999999999999}}}, {"type": "Feature", "geometry": {"type": "Point", "coordinates": [-2.973295, 53.337862]}, "properties": {"site_id": "gcmzkmfgt4ns", "brand": "ASDA", "address": "Welton Road - Croft Business Park, Bromborough", "postcode": "CH62 3QP", "last_updated": "25/04/2024 00:00:00", "prices": {"B7": 1.527, "E10": 1.4469999999999998}}}, {"type": "Feature", "geometry": {"type": "Point", "coordinates": [-2.473815, 52.609625]}, "properties": {"site_id": "gcq5r9qevdm6", "brand": "ASDA", "address": "Ironbridge Road, Broseley", "postcode": "TF12 5DJ", "last_updated": "25/04/2024 00:00:00", "prices": {"B7": 1.557, "E10": 1.4869999999999999}}}, {"type": "Feature", "geometry": {"type": "Point", "coordinates": [-1.305641, 52.700889]}, "properties": {"site_id": "gcr5f3cm573y", "brand": "ASDA", "address": "32 Shaw Lane, Leicester", "postcode": "LE67 9PU", "last_updated": "25/04/2024 00:00:00", "prices": {"B7": 1.617, "E10": 1.587}}}, {"type": "Feature", "geometry": {"type": "Point", "coordinates": [-0.987388, 51.988743]}, "properties": {"site_id": "gcpr9p4ffkfj", "brand": "ASDA", "address": "Buckingham Ring Road, Buckingham", "postcode": "MK18 1RY", "last_updated": "25/04/2024 00:00:00", "prices": {"B7": 1.547, "E10": 1.4869999999999999}}}, {"type": "Feature", "geometry": {"type": "Point", "coordinates": [-3.401506, 52.152438]}, "properties": {"site_id": "gcm8dw51gpm2", "brand": "ASDA", "address": "Station Road, Builth Wells", "postcode": "LD2 3SS", "last_updated": "25/04/2024 00:00:00", "prices": {"B7": 1.567, "E10": 1.4869999999999999}}}, {"type": "Feature", "geometry": {"type": "Point", "coordinates": [-0.22253, 51.30875]}, "properties": {"site_id": "gcpgfuw63mbf", "brand": "ASDA", "address": "Reigate Road, Burgh Heath, Tadworth", "postcode": "KT20 5NZ", "last_updated": "25/04/2024 00:00:00", "prices": {"B7": 1.567, "E10": 1.4869999999999999}}}, {"type": "Feature", "geometry": {"type": "Point", "coordinates": [-2.24292, 53.794649]}, "properties": {"site_id": "gcw6hcnb81ms", "brand": "ASDA", "address": "Princess Way, Burnley", "postcode": "BB12 0EQ", "last_updated": "25/04/2024 00:00:00", "prices": {"B7": 1.547, "E10": 1.4569999999999999}}}, {"type": "Feature", "geometry": {"type": "Point", "coordinates": [0.328202, 52.277132]}, "properties": {"site_id": "u121rkybrev9", "brand": "ASDA", "address": "Ness Road, Cambridge", "postcode": "CB25 0AA", "last_updated": "25/04/2024 00:00:00", "prices": {"B7": 1.6369999999999998, "E10": 1.537}}}, {"type": "Feature", "geometry": {"type": "Point", "coordinates": [0.69199, 52.25155]}, "properties": {"site_id": "u123r8pjju87", "brand": "ASDA", "address": "Western Way, Bury St Edmunds", "postcode": "IP33 3SP", "last_updated": "25/04/2024 00:00:00", "prices": {"B7": 1.557, "E10": 1.4569999999999999}}}, {"type": "Feature", "geometry": {"type": "Point", "coordinates": [-1.572405, 54.979225]}, "properties": {"site_id": "gcybu0xj0q9b", "brand": "ASDA", "address": "Unit 5, Newcastle Shopping Park, Newcastle upon Tyne", "postcode": "NE6 2XP", "last_updated": "25/04/2024 00:00:00", "prices": {"B7": 1.567, "E10": 1.4769999999999999}}}, {"type": "Feature", "geometry": {"type": "Point", "coordinates": [-3.22123, 51.585824]}, "properties": {"site_id": "gcjtqwym5ysf", "brand": "ASDA", "address": "Pontygwindy Road, Caerphilly", "postcode": "CF83 3SX", "last_updated": "25/04/2024 00:00:00", "prices": {"B7": 1.587, "E10": 1.4769999999999999}}}, {"type": "Feature", "geometry": {"type": "Point", "coordinates": [-2.951731, 56.480406]}, "properties": {"site_id": "gfjckcfwhmv9", "brand": "ASDA", "address": "61 Forfar Road, Dundee", "postcode": "DD4 9BS", "last_updated": "25/04/2024 00:00:00", "prices": {"B7": 1.567, "E10": 1.4869999999999999}}}, {"type": "Feature", "geometry": {"type": "Point", "coordinates": [-1.834222, 51.635112]}, "properties": {"site_id": "gcnty0nqqshf", "brand": "ASDA", "address": "A419 Crickla, Swindon", "postcode": "SN6 6JR", "last_updated": "25/04/2024 00:00:00", "prices": {"B7": 1.577, "E10": 1.4969999999999999}}}, {"type": "Feature", "geometry": {"type": "Point", "coordinates": [-1.9666, 50.75152]}, "properties": {"site_id": "gcn8epp9rm08", "brand": "ASDA", "address": "Culliford Crescent - Canford Heath, Poole", "postcode": "BH17 9DW", "last_updated": "25/04/2024 00:00:00", "prices": {"B7": 1.557, "E10": 1.4669999999999999}}}, {"type": "Feature", "geometry": {"type": "Point", "coordinates": [-1.54536, 52.390362]}, "properties": {"site_id": "gcqfh9xp9g5b", "brand": "ASDA", "address": "Fletchamstead Highway, Coventry", "postcode": "CV4 7BB", "last_updated": "25/04/2024 00:00:00", "prices": {"B7": 1.547, "E10": 1.517}}}, {"type": "Feature", "geometry": {"type": "Point", "coordinates": [-2.03563, 52.68297]}, "properties": {"site_id": "gcqe9z1wk0rp", "brand": "ASDA", "address": "Avon Road, Cannock", "postcode": "WS11 1LH", "last_updated": "25/04/2024 00:00:00", "prices": {"B7": 1.517, "E10": 1.4469999999999998}}}, {"type": "Feature", "geometry": {"type": "Point", "coordinates": [1.098257, 51.290393]}, "properties": {"site_id": "u10gbcnm9qb4", "brand": "ASDA", "address": "Sturry Road, Canterbury", "postcode": "CT1 1DG", "last_updated": "25/04/2024 00:00:00", "prices": {"B7": 1.587, "E10": 1.4969999999999999}}}, {"type": "Feature", "geometry": {"type": "Point", "coordinates": [-3.183209, 51.455816]}, "properties": {"site_id": "gcjsxx3099sd", "brand": "ASDA", "address": "Ferry Road Retail Park, Cardiff", "postcode": "CF11 0JR", "last_updated": "25/04/2024 00:00:00", "prices": {"B7": 1.557, "E10": 1.4669999999999999}}}, {"type": "Feature", "geometry": {"type": "Point", "coordinates": [-2.94732, 54.928207]}, "properties": {"site_id": "gcvbkzmgfryv", "brand": "ASDA", "address": "Chandler Way, Carlisle", "postcode": "CA3 0JQ", "last_updated": "25/04/2024 00:00:00", "prices": {"B7": 1.557, "E10": 1.4669999999999999}}}, {"type": "Feature", "geometry": {"type": "Point", "coordinates": [-1.592588, 51.7578]}, "properties": {"site_id": "gcny7wrs1ckm", "brand": "ASDA", "address": "Black Bourton Road, Carterton", "postcode": "OX18 3HQ", "last_updated": "25/04/2024 00:00:00", "prices": {"B7": 1.567, "E10": 1.4769999999999999}}}, {"type": "Feature", "geometry": {"type": "Point", "coordinates": [-2.988166, 51.591305]}, "properties": {"site_id": "gcjvkpbkbqm2", "brand": "ASDA", "address": "17-25 Chepstow Road, Newport", "postcode": "NP19 8BW", "last_updated": "25/04/2024 00:00:00", "prices": {"B7": 1.567, "E10": 1.4869999999999999}}}, {"type": "Feature", "geometry": {"type": "Point", "coordinates": [-2.588825, 53.380599]}, "properties": {"site_id": "gcqptjdfk3ry", "brand": "ASDA", "address": "Wilderspool Causeway, Warrington", "postcode": "WA4 6QE", "last_updated": "25/04/2024 00:00:00", "prices": {"B7": 1.567, "E10": 1.4869999999999999}}}, {"type": "Feature", "geometry": {"type": "Point", "coordinates": [-1.609, 52.596234]}, "properties": {"site_id": "gcqg5qggnbq1", "brand": "ASDA", "address": "Watling Street, Tamworth", "postcode": "B78 1SS", "last_updated": "25/04/2024 00:00:00", "prices": {"B7": 1.537, "E10": 1.4869999999999999}}}, {"type": "Feature", "geometry": {"type": "Point", "coordinates": [-1.574023, 54.852174]}, "properties": {"site_id": "gcybh1mz0wr7", "brand": "ASDA", "address": "Ropery Lane, Chester-le-Street", "postcode": "DH3 3AP", "last_updated": "25/04/2024 00:00:00", "prices": {"B7": 1.567, "E10": 1.4869999999999999}}}, {"type": "Feature", "geometry": {"type": "Point", "coordinates": [-2.138861, 53.546712]}, "properties": {"site_id": "gcw2x7cf623h", "brand": "ASDA", "address": "Milne Street, Chadderton, Oldham", "postcode": "OL9 0JE", "last_updated": "25/04/2024 00:00:00", "prices": {"B7": 1.537, "E10": 1.4569999999999999}}}, {"type": "Feature", "geometry": {"type": "Point", "coordinates": [0.395142, 51.432069]}, "properties": {"site_id": "u10k8fzv2xg3", "brand": "ASDA", "address": "Rochester Road, Gravesend", "postcode": "DA12 4TN", "last_updated": "25/04/2024 00:00:00", "prices": {"B7": 1.567, "E10": 1.4769999999999999}}}, {"type": "Feature", "geometry": {"type": "Point", "coordinates": [0.023938, 51.489284]}, "properties": {"site_id": "u10hbt36vf1q", "brand": "ASDA", "address": "Bugsby Way, Charlton, London", "postcode": "SE7 7ST", "last_updated": "25/04/2024 00:00:00", "prices": {"B7": 1.527, "E10": 1.4669999999999999}}}, {"type": "Feature", "geometry": {"type": "Point", "coordinates": [-1.862023, 50.741319]}, "properties": {"site_id": "gcn8tthhbqde", "brand": "ASDA", "address": "332/334 Charminster Road, Bournemouth", "postcode": "BH8 9QW", "last_updated": "25/04/2024 00:00:00", "prices": {"B7": 1.577, "E10": 1.4869999999999999}}}, {"type": "Feature", "geometry": {"type": "Point", "coordinates": [0.508844, 51.34679]}, "properties": {"site_id": "u10k5e4990s8", "brand": "ASDA", "address": "387 Maidstone Road, Chatham", "postcode": "ME5 9SE", "last_updated": "25/04/2024 00:00:00", "prices": {"B7": 1.547, "E10": 1.4469999999999998}}}, {"type": "Feature", "geometry": {"type": "Point", "coordinates": [0.506334, 51.735868]}, "properties": {"site_id": "u10q7d0xq2vc", "brand": "ASDA", "address": "Chelmer Village Centre, Chelmsford", "postcode": "CM2 6RE", "last_updated": "25/04/2024 00:00:00", "prices": {"B7": 1.547, "E10": 1.4469999999999998}}}, {"type": "Feature", "geometry": {"type": "Point", "coordinates": [-2.128683, 51.891662]}, "properties": {"site_id": "gcnrpw3ev103", "brand": "ASDA", "address": "Hatherley Lane, Cheltenham", "postcode": "GL51 6PN", "last_updated": "25/04/2024 00:00:00", "prices": {"B7": 1.537, "E10": 1.4569999999999999}}}, {"type": "Feature", "geometry": {"type": "Point", "coordinates": [-1.201052, 51.948658]}, "properties": {"site_id": "gcpph52vmjym", "brand": "ASDA", "address": "Northampton Road, Bicester", "postcode": "OX27 7RD", "last_updated": "25/04/2024 00:00:00", "prices": {"B7": 1.819, "E10": 1.739}}}, {"type": "Feature", "geometry": {"type": "Point", "coordinates": [-3.247354, 55.925904]}, "properties": {"site_id": "gcvwnj52htgj", "brand": "ASDA", "address": "3 New Mart Road, Edinburgh", "postcode": "EH14 1RJ", "last_updated": "25/04/2024 00:00:00", "prices": {"B7": 1.527, "E10": 1.4569999999999999}}}, {"type": "Feature", "geometry": {"type": "Point", "coordinates": [-1.345147, 50.970021]}, "properties": {"site_id": "gcp1cque463p", "brand": "ASDA", "address": "10 Bishopstoke Road, Eastleigh", "postcode": "SO50 6AF", "last_updated": "25/04/2024 00:00:00", "prices": {"B7": 1.597, "E10": 1.517}}}, {"type": "Feature", "geometry": {"type": "Point", "coordinates": [-1.723552, 51.514699]}, "properties": {"site_id": "gcnv0f2tjrq3", "brand": "ASDA", "address": "Marlborough Road, Swindon", "postcode": "SN4 0NR", "last_updated": "25/04/2024 00:00:00", "prices": {"B7": 1.547, "E10": 1.4969999999999999}}}, {"type": "Feature", "geometry": {"type": "Point", "coordinates": [-2.641045, 53.640926]}, "properties": {"site_id": "gcw15vhc51ms", "brand": "ASDA", "address": "117 Moor Road, Chorley", "postcode": "PR7 2NU", "last_updated": "25/04/2024 00:00:00", "prices": {"B7": 1.577, "E10": 1.4769999999999999}}}, {"type": "Feature", "geometry": {"type": "Point", "coordinates": [-2.629841, 53.648798]}, "properties": {"site_id": "gcw1hnksjbf9", "brand": "ASDA", "address": "Bolton Street, Chorley", "postcode": "PR7 3DL", "last_updated": "25/04/2024 00:00:00", "prices": {"B7": 1.557, "E10": 1.4569999999999999}}}, {"type": "Feature", "geometry": {"type": "Point", "coordinates": [-1.786717, 50.73677]}, "properties": {"site_id": "gcn8xk6gjn4f", "brand": "ASDA", "address": "58 Barrack Road, Christchurch", "postcode": "BH23 1PQ", "last_updated": "25/04/2024 00:00:00", "prices": {"B7": 1.587, "E10": 1.4969999999999999}}}, {"type": "Feature", "geometry": {"type": "Point", "coordinates": [-2.336622, 53.457202]}, "properties": {"site_id": "gcw24g7zthk0", "brand": "ASDA", "address": "Audley Avenue, Stretford", "postcode": "M32 9TR", "last_updated": "25/04/2024 00:00:00", "prices": {"B7": 1.577, "E10": 1.4869999999999999}}}, {"type": "Feature", "geometry": {"type": "Point", "coordinates": [1.157747, 51.802295]}, "properties": {"site_id": "u10ydq5qvpzz", "brand": "ASDA", "address": "Bull Hill Road, Clacton-on-Sea", "postcode": "CO15 4AU", "last_updated": "25/04/2024 00:00:00", "prices": {"B7": 1.547, "E10": 1.4769999999999999}}}, {"type": "Feature", "geometry": {"type": "Point", "coordinates": [-2.645292, 53.713452]}, "properties": {"site_id": "gcw1ef1wbwr4", "brand": "ASDA", "address": "Preston Road, Chorley", "postcode": "PR6 7EJ", "last_updated": "25/04/2024 00:00:00", "prices": {"B7": 1.557, "E10": 1.4869999999999999}}}, {"type": "Feature", "geometry": {"type": "Point", "coordinates": [-4.024617, 55.861537]}, "properties": {"site_id": "gcvju3m359hp", "brand": "ASDA", "address": "Main Street, Coatbridge", "postcode": "ML5 3BU", "last_updated": "25/04/2024 00:00:00", "prices": {"B7": 1.577, "E10": 1.4869999999999999}}}, {"type": "Feature", "geometry": {"type": "Point", "coordinates": [-3.074378, 53.055413]}, "properties": {"site_id": "gcmvf43w1r1k", "brand": "ASDA", "address": "High Street, Wrexham", "postcode": "LL11 3UF", "last_updated": "25/04/2024 00:00:00", "prices": {"B7": 1.547, "E10": 1.4569999999999999}}}, {"type": "Feature", "geometry": {"type": "Point", "coordinates": [0.862573, 51.873091]}, "properties": {"site_id": "u10x5ehnesgd", "brand": "ASDA", "address": "246 Shrub End Road, Colchester", "postcode": "CO3 4SA", "last_updated": "25/04/2024 00:00:00", "prices": {"B7": 1.567, "E10": 1.4669999999999999}}}, {"type": "Feature", "geometry": {"type": "Point", "coordinates": [0.900308, 51.902629]}, "properties": {"site_id": "u10xk2xddxq3", "brand": "ASDA", "address": "Turner Rise, Colchester", "postcode": "CO4 5TU", "last_updated": "25/04/2024 00:00:00", "prices": {"B7": 1.557, "E10": 1.4769999999999999}}}, {"type": "Feature", "geometry": {"type": "Point", "coordinates": [-0.260208, 51.593664]}, "properties": {"site_id": "gcpvd06dbtke", "brand": "ASDA", "address": "Capitol Way off Edgware Road, Colindale, London", "postcode": "NW9 0AS", "last_updated": "25/04/2024 00:00:00", "prices": {"B7": 1.577, "E10": 1.4769999999999999}}}, {"type": "Feature", "geometry": {"type": "Point", "coordinates": [-6.74608, 54.63502]}, "properties": {"site_id": "gceny991w6cu", "brand": "ASDA", "address": "Sweep Road, Cookstown", "postcode": "BT80 8JR", "last_updated": "25/04/2024 00:00:00", "prices": {"B7": 1.527, "E10": 1.4269999999999998}}}, {"type": "Feature", "geometry": {"type": "Point", "coordinates": [-0.097235, 51.136309]}, "properties": {"site_id": "gcpfvszy8srf", "brand": "ASDA", "address": "Copthorne Common, Crawley", "postcode": "RH10 3LF", "last_updated": "25/04/2024 00:00:00", "prices": {"B7": 1.547, "E10": 1.4969999999999999}}}, {"type": "Feature", "geometry": {"type": "Point", "coordinates": [-0.678637, 52.493857]}, "properties": {"site_id": "gcrd8s862dv8", "brand": "ASDA", "address": "Phoenix Park Way, Corby", "postcode": "NN17 5DT", "last_updated": "25/04/2024 00:00:00", "prices": {"B7": 1.569, "E10": 1.4669999999999999}}}, {"type": "Feature", "geometry": {"type": "Point", "coordinates": [-1.470257, 53.840221]},