{"site_id":"u10npjd7vv05","brand":"AppleGreen","address":"Chelmsford Road, Norton Heath","postcode":"CM4 0LQ","last_updated":"24\/04\/2024 11:50:14","latitude":51.710571,"longitude":0.310954,"B7":1.578,"E10":1.498,"E5":null,"SDV":null}
{"site_id":"u10q6y3965c9","brand":"AppleGreen","address":"74 Main Road, Broomfield","postcode":"CM1 7DH","last_updated":"24\/04\/2024 11:50:14","latitude":51.7582,"longitude":0.47456,"B7":1.568,"E10":1.478,"E5":null,"SDV":null}
{"site_id":"gcpfg2600tm2","brand":"AppleGreen","address":"Crawley Avenue, Crawley","postcode":"RH10 8BA","last_updated":"24\/04\/2024 11:50:14","latitude":51.1098,"longitude":-0.205965,"B7":1.528,"E10":1.438,"E5":1.558,"SDV":null}
{"site_id":"gcrfgnmzstum","brand":"AppleGreen","address":"Whittlesey Road, Peterborough","postcode":"PE2 8RR","last_updated":"24\/04\/2024 11:50:14","latitude":52.5503,"longitude":-0.211631,"B7":1.578,"E10":1.478,"E5":1.628,"SDV":null}
{"site_id":"gcpw62hpksnx","brand":"AppleGreen","address":"Ashley Green Road, Chesham","postcode":"HP5 3PG","last_updated":"24\/04\/2024 11:50:14","latitude":51.7249,"longitude":-0.598553,"B7":1.578,"E10":1.498,"E5":null,"SDV":null}
{"site_id":"gcqdmx4vbbt3","brand":"AppleGreen","address":"Small Heath Highway, Birmingham","postcode":"B10 0AE","last_updated":"24\/04\/2024 11:50:14","latitude":52.4662,"longitude":-1.86386,"B7":1.568,"E10":1.468,"E5":null,"SDV":null}
{"site_id":"gcn7vwmfq076","brand":"AppleGreen","address":"Bythesea Road, Trowbridge","postcode":"BA14 8HR","last_updated":"24\/04\/2024 11:50:14","latitude":51.3189,"longitude":-2.21108,"B7":1.558,"E10":1.468,"E5":1.588,"SDV":null}
{"site_id":"gcqdfjdub1k2","brand":"AppleGreen","address":"Holloway Bank, Wednesbury","postcode":"WS10 0NP","last_updated":"24\/04\/2024 11:50:14","latitude":52.545683,"longitude":-2.017702,"B7":1.558,"E10":1.468,"E5":null,"SDV":null}
{"site_id":"gcppm8z8rhrf","brand":"AppleGreen","address":"Banbury Road, Bicester","postcode":"OX26 2HJ","last_updated":"24\/04\/2024 11:50:14","latitude":51.9036,"longitude":-1.15394,"B7":1.538,"E10":1.468,"E5":null,"SDV":null}
{"site_id":"u1243hdmundq","brand":"AppleGreen","address":"22 West Park Street, Chatteris","postcode":"PE16 6AJ","last_updated":"24\/04\/2024 11:50:14","latitude":52.4525,"longitude":0.04721,"B7":1.538,"E10":1.438,"E5":1.558,"SDV":null}
{"site_id":"u104x1q4cce9","brand":"AppleGreen","address":"Station Road, Wadhurst","postcode":"TN5 6RP","last_updated":"24\/04\/2024 11:50:14","latitude":51.0718,"longitude":0.315937,"B7":1.598,"E10":1.508,"E5":1.648,"SDV":null}
{"site_id":"u101fnnp8yzb","brand":"AppleGreen","address":"High Street, Uckfield","postcode":"TN22 5DL","last_updated":"24\/04\/2024 11:50:14","latitude":50.9669,"longitude":0.096173,"B7":1.568,"E10":1.468,"E5":1.608,"SDV":null}
{"site_id":"u12b5jrwy51b","brand":"AppleGreen","address":"23 Woodbridge Road East, Ipswich","postcode":"IP4 5QN","last_updated":"24\/04\/2024 11:50:14","latitude":52.061264,"longitude":1.197083,"B7":1.538,"E10":1.448,"E5":1.588,"SDV":null}
{"site_id":"gcrvqgyw74hf","brand":"AppleGreen","address":"157 Sleaford Road, Boston","postcode":"PE21 7PF","last_updated":"24\/04\/2024 11:50:14","latitude":52.975785,"longitude":-0.04587,"B7":1.558,"E10":1.478,"E5":1.618,"SDV":null}
{"site_id":"gcx8c14hzz35","brand":"AppleGreen","address":"Ashby Road, Scunthorpe","postcode":"DN16 2AQ","last_updated":"24\/04\/2024 11:50:14","latitude":53.575684,"longitude":-0.656099,"B7":1.558,"E10":1.468,"E5":1.608,"SDV":null}
{"site_id":"gcntr7z839js","brand":"AppleGreen","address":"Great Western Way, Swindon","postcode":"SN2 1US","last_updated":"24\/04\/2024 11:50:14","latitude":51.5685,"longitude":-1.7804,"B7":1.558,"E10":1.488,"E5":1.638,"SDV":null}
{"site_id":"gcmudtu75hhr","brand":"AppleGreen","address":"Salop Road, Oswestry","postcode":"SY11 2RL","last_updated":"24\/04\/2024 11:50:14","latitude":52.854389,"longitude":-3.048228,"B7":1.558,"E10":1.488,"E5":1.628,"SDV":null}
{"site_id":"u124qw88psv0","brand":"AppleGreen","address":"A10 Bypass, Ely","postcode":"CB6 1SE","last_updated":"24\/04\/2024 11:50:14","latitude":52.462489,"longitude":0.28666,"B7":1.588,"E10":1.528,"E5":1.668,"SDV":null}
{"site_id":"gcmg8dcg0n1p","brand":"AppleGreen","address":"Salop Road, Welshpool","postcode":"SY21 7ET","last_updated":"24\/04\/2024 11:50:14","latitude":52.662139,"longitude":-3.139685,"B7":1.538,"E10":1.438,"E5":null,"SDV":null}
{"site_id":"gcr4b5vqdwf1","brand":"AppleGreen","address":"Coventry Road, Hinckley","postcode":"LE10 0NB","last_updated":"24\/04\/2024 11:50:14","latitude":52.5364,"longitude":-1.39893,"B7":1.568,"E10":1.468,"E5":1.608,"SDV":null}
{"site_id":"gcq4bhpx5gp9","brand":"AppleGreen","address":"Crossways, Church Stretton","postcode":"SY6 6PQ","last_updated":"24\/04\/2024 11:50:14","latitude":52.537839,"longitude":-2.802029,"B7":1.558,"E10":1.478,"E5":1.628,"SDV":null}
{"site_id":"gcq044g47vhh","brand":"AppleGreen","address":"Ross Road, Hereford","postcode":"HR2 7RJ","last_updated":"24\/04\/2024 11:50:14","latitude":52.04677,"longitude":-2.720323,"B7":1.518,"E10":1.438,"E5":1.578,"SDV":null}
{"site_id":"u12gsgwb2j9y","brand":"AppleGreen","address":"160 Cromer Road, Norwich","postcode":"NR6 6XA","last_updated":"24\/04\/2024 11:50:14","latitude":52.665784,"longitude":1.2727,"B7":1.558,"E10":1.488,"E5":1.628,"SDV":null}
{"site_id":"u12gev6eezzb","brand":"AppleGreen","address":"3-5 Fakenham Road, Drayton, Norwich","postcode":"NR8 6PL","last_updated":"24\/04\/2024 11:50:14","latitude":52.675966,"longitude":1.223087,"B7":1.558,"E10":1.488,"E5":1.628,"SDV":null}
{"site_id":"gcpqv4phzzrt","brand":"AppleGreen","address":"Bicester Road, Aylesbury","postcode":"HP19 3BB","last_updated":"24\/04\/2024 11:50:14","latitude":51.823365,"longitude":-0.825005,"B7":1.548,"E10":1.478,"E5":1.618,"SDV":null}
{"site_id":"gcjmnb068hbn","brand":"AppleGreen","address":"Tremains Road, Bridgend","postcode":"CF31 1TZ","last_updated":"24\/04\/2024 11:50:14","latitude":51.504362,"longitude":-3.570213,"B7":1.528,"E10":1.488,"E5":null,"SDV":null}
{"site_id":"gcnhv4cmpbze","brand":"AppleGreen","address":"106\/114 Gloucester Rd, Bristol","postcode":"BS7 8NL","last_updated":"24\/04\/2024 11:50:14","latitude":51.47593,"longitude":-2.590714,"B7":1.558,"E10":1.488,"E5":1.628,"SDV":null}
{"site_id":"gcpvy1uf5gzz","brand":"AppleGreen","address":"London Road, Enfield","postcode":"EN2 6EU","last_updated":"24\/04\/2024 11:50:14","latitude":51.64572,"longitude":-0.081196,"B7":1.558,"E10":1.478,"E5":1.618,"SDV":null}
{"site_id":"gcpv228yzupu","brand":"AppleGreen","address":"1091 Greenford Road, Greenford","postcode":"UB6 0EJ","last_updated":"24\/04\/2024 11:50:14","latitude":51.551779,"longitude":-0.339203,"B7":1.578,"E10":1.488,"E5":1.628,"SDV":null}
{"site_id":"gcp31txcx2sn","brand":"AppleGreen","address":"258 Havant Road, Portsmouth","postcode":"PO11 0LP","last_updated":"24\/04\/2024 11:50:14","latitude":50.831255,"longitude":-0.97781,"B7":1.578,"E10":1.478,"E5":1.638,"SDV":null}
{"site_id":"gcjw75mdkp2p","brand":"AppleGreen","address":"3 - 3a Lower High Street, Merthyr Tydfil","postcode":"CF47 8EB","last_updated":"24\/04\/2024 11:50:14","latitude":51.741912,"longitude":-3.376064,"B7":1.598,"E10":1.498,"E5":null,"SDV":null}
{"site_id":"gbuw6gheezxg","brand":"AppleGreen","address":"1 Pennewick Road, St Austell","postcode":"PL25 5DP","last_updated":"24\/04\/2024 11:50:14","latitude":50.334504,"longitude":-4.794674,"B7":1.578,"E10":1.478,"E5":null,"SDV":null}
{"site_id":"gcqpy0uuxvzy","brand":"AppleGreen","address":"43 Manchester Road, Warrington","postcode":"WA1 4AE","last_updated":"24\/04\/2024 11:50:14","latitude":53.398479,"longitude":-2.541962,"B7":1.548,"E10":1.468,"E5":1.588,"SDV":null}
{"site_id":"gcp1c24r7frz","brand":"AppleGreen","address":"Swaythling Rd, Southampton","postcode":"SO30 3AG","last_updated":"24\/04\/2024 11:50:14","latitude":50.933875,"longitude":-1.348057,"B7":1.558,"E10":1.498,"E5":null,"SDV":null}
{"site_id":"gcput0dgbnbm","brand":"AppleGreen","address":"275 Streatham Common High Rd, Streatham","postcode":"SW16 3BS","last_updated":"24\/04\/2024 11:50:14","latitude":51.419443,"longitude":-0.128059,"B7":1.558,"E10":1.488,"E5":1.628,"SDV":null}
{"site_id":"gcpxn7pzk61f","brand":"AppleGreen","address":"157-159 Castle Street, Luton","postcode":"LU1 3AA","last_updated":"24\/04\/2024 11:50:14","latitude":51.873204,"longitude":-0.417639,"B7":1.568,"E10":1.478,"E5":1.638,"SDV":null}
{"site_id":"gcpvtsnr7grd","brand":"AppleGreen","address":"243 North Circular Road, Palmers Green","postcode":"N13 5JF","last_updated":"24\/04\/2024 11:50:14","latitude":51.615032,"longitude":-0.101109,"B7":1.578,"E10":1.478,"E5":null,"SDV":null}
{"site_id":"gcrj646s0xk1","brand":"AppleGreen","address":"Derby Road, Ilkeston","postcode":"DE7 5FH","last_updated":"24\/04\/2024 11:50:14","latitude":52.967187,"longitude":-1.314899,"B7":1.558,"E10":1.458,"E5":1.598,"SDV":null}
{"site_id":"u10dgyvq5bx8","brand":"AppleGreen","address":"North Street, Ashford","postcode":"TN24 8LQ","last_updated":"24\/04\/2024 11:50:14","latitude":51.14651,"longitude":0.875301,"B7":1.558,"E10":1.488,"E5":1.628,"SDV":null}
{"site_id":"gcnnz51y3241","brand":"AppleGreen","address":"133 High Street, Cinderford","postcode":"GL14 2TD","last_updated":"24\/04\/2024 11:50:14","latitude":51.829076,"longitude":-2.502423,"B7":1.548,"E10":1.488,"E5":1.628,"SDV":null}
{"site_id":"gcq11edvjb28","brand":"AppleGreen","address":"A44 Bargates, Leominster","postcode":"HR6 8EY","last_updated":"24\/04\/2024 11:50:14","latitude":52.227117,"longitude":-2.742558,"B7":1.618,"E10":1.538,"E5":1.678,"SDV":null}
{"site_id":"gcqfzgmq7vh0","brand":"AppleGreen","address":"A5 Watling Street, Hinckley","postcode":"LE10 3ED","last_updated":"24\/04\/2024 11:50:14","latitude":52.533601,"longitude":-1.40986,"B7":1.568,"E10":1.468,"E5":null,"SDV":null}
{"site_id":"gcjjyucqgp8d","brand":"AppleGreen","address":"Neath Road, Swansea","postcode":"SA6 8EF","last_updated":"24\/04\/2024 11:50:14","latitude":51.663034,"longitude":-3.920273,"B7":1.578,"E10":1.488,"E5":1.628,"SDV":null}
{"site_id":"gcjjv3exz521","brand":"AppleGreen","address":"1093 Carmarthen Road, Swansea","postcode":"SA5 4AN","last_updated":"24\/04\/2024 11:50:14","latitude":51.64533,"longitude":-3.98293,"B7":1.558,"E10":1.488,"E5":1.628,"SDV":null}
{"site_id":"gcjjxj3ucqjf","brand":"AppleGreen","address":"Fabian Way, Swansea","postcode":"SA1 8PA","last_updated":"24\/04\/2024 11:50:14","latitude":51.621484,"longitude":-3.908668,"B7":1.568,"E10":1.488,"E5":1.628,"SDV":1.708}
{"site_id":"gcjm3zzvxzsn","brand":"AppleGreen","address":"Port Talbot Road, Swansea","postcode":"SA13 1HN","last_updated":"24\/04\/2024 11:50:14","latitude":51.591409,"longitude":-3.779302,"B7":1.578,"E10":1.488,"E5":null,"SDV":null}
{"site_id":"gcpyrwnyeygx","brand":"AppleGreen","address":"21 High Street, Hoddesdon","postcode":"EN11 8SX","last_updated":"24\/04\/2024 11:50:14","latitude":51.757745,"longitude":-0.012537,"B7":1.528,"E10":1.478,"E5":null,"SDV":null}
{"site_id":"gcpvt4wcxb26","brand":"AppleGreen","address":"2 Bounds Green Road, Bowes Park","postcode":"N11 2QH","last_updated":"24\/04\/2024 11:50:14","latitude":51.605789,"longitude":-0.122233,"B7":1.578,"E10":1.488,"E5":1.628,"SDV":null}
{"site_id":"gcpuvgg4nxzs","brand":"AppleGreen","address":"96-106 Camberwell Road, Camberwell","postcode":"SE5 0EG","last_updated":"24\/04\/2024 11:50:14","latitude":51.480946,"longitude":-0.094468,"B7":1.548,"E10":1.468,"E5":1.618,"SDV":null}
{"site_id":"gcx19d9p03t5","brand":"AppleGreen","address":"Front Street, Castleford","postcode":"WF10 4QE","last_updated":"24\/04\/2024 11:50:14","latitude":53.716115,"longitude":-1.338941,"B7":1.528,"E10":1.438,"E5":null,"SDV":null}
{"site_id":"gcnx24usyqmu","brand":"AppleGreen","address":"Tewkesbury Road, Swindon Village","postcode":"GL51 9SG","last_updated":"24\/04\/2024 11:50:14","latitude":51.91537,"longitude":-2.102919,"B7":1.558,"E10":1.478,"E5":1.618,"SDV":null}
{"site_id":"gcz02v4pkr3d","brand":"AppleGreen","address":"Dame Dorothy Street, Sunderland","postcode":"SR6 0EZ","last_updated":"24\/04\/2024 11:50:14","latitude":54.916445,"longitude":-1.37036,"B7":1.568,"E10":1.478,"E5":1.618,"SDV":null}
{"site_id":"gcq5yscqvvvr","brand":"AppleGreen","address":"Shawbirch Crossroads, Telford","postcode":"TF1 3QA","last_updated":"24\/04\/2024 11:50:14","latitude":52.717713,"longitude":-2.524885,"B7":1.568,"E10":1.488,"E5":1.628,"SDV":null}
{"site_id":"gcqzx5pye8kt","brand":"AppleGreen","address":"580 City road, Sheffield","postcode":"S2 1GE","last_updated":"24\/04\/2024 11:50:14","latitude":53.367207,"longitude":-1.439396,"B7":1.578,"E10":1.488,"E5":1.628,"SDV":null}
{"site_id":"gcn7gqn68tfc","brand":"AppleGreen","address":"Hinton Charterhouse, Bath","postcode":"BA2 7TP","last_updated":"24\/04\/2024 11:50:14","latitude":51.317599,"longitude":-2.309507,"B7":1.638,"E10":1.538,"E5":1.678,"SDV":null}
{"site_id":"gcmyy1hc1w8j","brand":"AppleGreen","address":"Liverpool Road, Chester","postcode":"CH2 4BA","last_updated":"24\/04\/2024 11:50:14","latitude":53.223474,"longitude":-2.893803,"B7":1.598,"E10":1.508,"E5":null,"SDV":null}
{"site_id":"gcqe73z3bnnz","brand":"AppleGreen","address":"Lichfield Road, Walsall","postcode":"WS4 1PQ","last_updated":"24\/04\/2024 11:50:14","latitude":52.612486,"longitude":-1.956587,"B7":1.588,"E10":1.488,"E5":null,"SDV":null}
{"site_id":"gcmy3c6d7svb","brand":"AppleGreen","address":"Wrexham Road, Mold","postcode":"CH7 4HL","last_updated":"24\/04\/2024 11:50:14","latitude":53.137161,"longitude":-3.083567,"B7":1.558,"E10":1.498,"E5":null,"SDV":null}
{"site_id":"gcjgef0c95ph","brand":"AppleGreen","address":"124 Berrow Road, Burnham on Sea","postcode":"TA8 2PG","last_updated":"24\/04\/2024 11:50:14","latitude":51.251495,"longitude":-2.998185,"B7":1.578,"E10":1.488,"E5":null,"SDV":null}
{"site_id":"u103324hnhj1","brand":"AppleGreen","address":"Barnhorn Road, Bexhill","postcode":"TN39 4QR","last_updated":"24\/04\/2024 11:50:14","latitude":50.845435,"longitude":0.409505,"B7":1.538,"E10":1.448,"E5":null,"SDV":null}
{"site_id":"gcqdex003p1p","brand":"AppleGreen","address":"122 Holyhead Road, Birmingham","postcode":"B21 0LL","last_updated":"24\/04\/2024 11:50:14","latitude":52.509237,"longitude":-1.955522,"B7":1.568,"E10":1.468,"E5":1.608,"SDV":null}
{"site_id":"gcmzgu3fqmc9","brand":"AppleGreen","address":"121-129 Great Howard Street, Liverpool","postcode":"L3 7AT","last_updated":"24\/04\/2024 11:50:14","latitude":53.417318,"longitude":-2.996594,"B7":1.578,"E10":1.478,"E5":1.618,"SDV":1.718}
{"site_id":"gctctpg34pt1","brand":"AppleGreen","address":"Preston Road, St Annes, Lytham","postcode":"FY8 5AT","last_updated":"24\/04\/2024 11:50:14","latitude":53.743956,"longitude":-2.93978,"B7":1.548,"E10":1.468,"E5":null,"SDV":null}
{"site_id":"gctfkhrefvtt","brand":"AppleGreen","address":"Mains Lane, Little Singleton, Poulton Le Fylde","postcode":"FY6 7LJ","last_updated":"24\/04\/2024 11:50:14","latitude":53.857028,"longitude":-2.977856,"B7":1.588,"E10":1.508,"E5":1.648,"SDV":null}
{"site_id":"gcqd6w8fmjqp","brand":"AppleGreen","address":"Hagley Road West, Birmingham","postcode":"B32 2AL","last_updated":"24\/04\/2024 11:50:14","latitude":52.462879,"longitude":-1.998259,"B7":1.528,"E10":1.458,"E5":1.598,"SDV":null}
{"site_id":"gcqdvnk62zp6","brand":"AppleGreen","address":"551 Kingstanding Road, Birmingham","postcode":"B44 9TD","last_updated":"24\/04\/2024 11:50:14","latitude":52.549405,"longitude":-1.88377,"B7":1.558,"E10":1.458,"E5":null,"SDV":null}
{"site_id":"gcmy2x6kjhm3","brand":"AppleGreen","address":"Roundabout Service Station King Street, Clwyd","postcode":"CH7 1LB","last_updated":"24\/04\/2024 11:50:14","latitude":53.170418,"longitude":-3.138778,"B7":1.548,"E10":1.488,"E5":null,"SDV":null}
{"site_id":"gcmwcrwndntb","brand":"AppleGreen","address":"Seaways Service Station, The Roe, Clwyd","postcode":"LL17 OLY","last_updated":"24\/04\/2024 11:50:14","latitude":53.260123,"longitude":-3.45236,"B7":1.598,"E10":1.528,"E5":null,"SDV":null}
{"site_id":"u10mdbhc7k84","brand":"AppleGreen","address":"Summerhill Service Station, Basildon","postcode":"SS14 3AS","last_updated":"24\/04\/2024 11:50:14","latitude":51.592036,"longitude":0.479075,"B7":1.568,"E10":1.488,"E5":1.628,"SDV":null}
{"site_id":"gcqdcf2xqyy1","brand":"AppleGreen","address":"232 Whitehall road, Tipton","postcode":"DY4 7EX","last_updated":"24\/04\/2024 11:50:14","latitude":52.528289,"longitude":-2.031486,"B7":1.568,"E10":1.478,"E5":null,"SDV":null}
{"site_id":"u10z06qejt9q","brand":"AppleGreen","address":"Colchester Road, Colchester","postcode":"CO7 8RX","last_updated":"24\/04\/2024 11:50:14","latitude":51.868374,"longitude":1.074838,"B7":1.588,"E10":1.508,"E5":1.648,"SDV":null}
{"site_id":"gcw3fu574qxx","brand":"AppleGreen","address":"Burnley Road, Accrington","postcode":"BB5 6LD","last_updated":"24\/04\/2024 11:50:14","latitude":53.767641,"longitude":-2.335518,"B7":1.558,"E10":1.478,"E5":1.628,"SDV":null}
{"site_id":"gcr4hphs34s6","brand":"AppleGreen","address":"A5 Watling street, Lutterworth","postcode":"LE17 6AR","last_updated":"24\/04\/2024 11:50:14","latitude":52.422008,"longitude":-1.22424,"B7":1.548,"E10":1.488,"E5":1.628,"SDV":1.688}
{"site_id":"gcqfwqvvmuhx","brand":"AppleGreen","address":"Bedworth Service Station, Nuneaton","postcode":"CV10 7DA","last_updated":"24\/04\/2024 11:50:14","latitude":52.508706,"longitude":-1.475005,"B7":1.558,"E10":1.468,"E5":1.608,"SDV":1.698}
{"site_id":"gcres6gqbh43","brand":"AppleGreen","address":"Great North Rd, Stamford","postcode":"PE9 4DE","last_updated":"24\/04\/2024 11:50:14","latitude":52.662771,"longitude":-0.511891,"B7":1.588,"E10":1.478,"E5":1.618,"SDV":1.728}
{"site_id":"gctqq3rgq458","brand":"AppleGreen","address":"Back Corkickle, Cumbria","postcode":"CA28 7TS","last_updated":"24\/04\/2024 11:50:14","latitude":54.543568,"longitude":-3.581624,"B7":1.588,"E10":1.498,"E5":1.638,"SDV":null}
{"site_id":"gcx4ygdmet71","brand":"AppleGreen","address":"20 \u2013 22 Tadcaster Road, York","postcode":"YO24 1LQ","last_updated":"24\/04\/2024 11:50:14","latitude":53.941097,"longitude":-1.106375,"B7":1.588,"E10":1.478,"E5":1.618,"SDV":null}
{"site_id":"gcv9e9srh757","brand":"AppleGreen","address":"1 Carlisle Road, Scotland","postcode":"DG11 2DJ","last_updated":"24\/04\/2024 11:50:14","latitude":55.11688,"longitude":-3.355793,"B7":1.588,"E10":1.498,"E5":null,"SDV":null}
{"site_id":"gcxcwt0zbyww","brand":"AppleGreen","address":"Hull Road, North Humberside","postcode":"HU12 8DJ","last_updated":"24\/04\/2024 11:50:14","latitude":53.730004,"longitude":-0.064847,"B7":1.578,"E10":1.498,"E5":1.648,"SDV":1.728}
{"site_id":"gcx0kbwgbkw1","brand":"AppleGreen","address":"Edlington Lane, Doncaster","postcode":"DN12 1BS","last_updated":"24\/04\/2024 11:50:14","latitude":53.48486,"longitude":-1.188221,"B7":1.558,"E10":1.468,"E5":null,"SDV":1.718}
{"site_id":"gcqdmx4ghd51","brand":"AppleGreen","address":"Small Heath Highway, Birmingham","postcode":"B10 0AE","last_updated":"24\/04\/2024 11:50:14","latitude":52.465736,"longitude":-1.863702,"B7":1.568,"E10":1.468,"E5":null,"SDV":null}
{"site_id":"gcx0w227tm7n","brand":"AppleGreen","address":"Doncaster St George Service Station, Doncaster","postcode":"DN1 2RE","last_updated":"24\/04\/2024 11:50:14","latitude":53.527394,"longitude":-1.131019,"B7":1.568,"E10":1.468,"E5":null,"SDV":1.728}
{"site_id":"u10n6c4h8b2r","brand":"AppleGreen","address":"High Road, Epping","postcode":"CM16 6LX","last_updated":"24\/04\/2024 11:50:14","latitude":51.729901,"longitude":0.123629,"B7":1.538,"E10":1.468,"E5":null,"SDV":1.658}
{"site_id":"gcq1czndpyxf","brand":"AppleGreen","address":"Bromfield Road, Ludlow","postcode":"SY8 1DN","last_updated":"24\/04\/2024 11:50:14","latitude":52.377698,"longitude":-2.726326,"B7":1.568,"E10":1.478,"E5":1.618,"SDV":null}
{"site_id":"gcwz49zn9kgm","brand":"AppleGreen","address":"A688, Binchester","postcode":"DL14 8AW","last_updated":"24\/04\/2024 11:50:14","latitude":54.678724,"longitude":-1.638278,"B7":1.558,"E10":1.468,"E5":null,"SDV":null}
{"site_id":"gcqmy04ug1ef","brand":"AppleGreen","address":"Waterloo Road, Stoke on Trent","postcode":"ST6 2EH","last_updated":"24\/04\/2024 11:50:14","latitude":53.042816,"longitude":-2.193355,"B7":1.558,"E10":1.488,"E5":null,"SDV":null}
{"site_id":"gcwycucveh38","brand":"AppleGreen","address":"Cockton Hill Road, Co Durham","postcode":"DL14 6JN","last_updated":"24\/04\/2024 11:50:14","latitude":54.651083,"longitude":-1.678374,"B7":1.568,"E10":1.478,"E5":null,"SDV":null}
{"site_id":"gcwzgsz672f7","brand":"AppleGreen","address":"A167 Northbound, Chester Le Street","postcode":"DH2 3NL","last_updated":"24\/04\/2024 11:50:14","latitude":54.826288,"longitude":-1.593905,"B7":1.558,"E10":1.478,"E5":null,"SDV":null}
{"site_id":"gcqfhy6pr8qx","brand":"AppleGreen","address":"Holyhead Road Service Station, Coventry","postcode":"CV5 8ND","last_updated":"24\/04\/2024 11:50:14","latitude":52.418392,"longitude":-1.545995,"B7":1.568,"E10":1.478,"E5":null,"SDV":null}
{"site_id":"gcqp4qb3cc6x","brand":"AppleGreen","address":"Frodsham Sevice Station, Frodsham","postcode":"Wa6 7HN","last_updated":"24\/04\/2024 11:50:14","latitude":53.299106,"longitude":-2.713201,"B7":1.568,"E10":1.468,"E5":1.608,"SDV":null}
{"site_id":"gcqdmfucrgyx","brand":"AppleGreen","address":"Stratford Road, Birmingham","postcode":"B28 8BN","last_updated":"24\/04\/2024 11:50:14","latitude":52.4421,"longitude":-1.849825,"B7":1.558,"E10":1.468,"E5":1.608,"SDV":null}
{"site_id":"gcpkdc22btn4","brand":"AppleGreen","address":"The Square, Reading","postcode":"RG6 5HJ","last_updated":"24\/04\/2024 11:50:14","latitude":51.423038,"longitude":-0.933465,"B7":1.578,"E10":1.478,"E5":1.618,"SDV":1.728}
{"site_id":"gcr5qw8hj0tb","brand":"AppleGreen","address":"131 Humberstone Road, Leicester","postcode":"LE5 3AD","last_updated":"24\/04\/2024 11:50:14","latitude":52.638934,"longitude":-1.120383,"B7":1.548,"E10":1.488,"E5":1.628,"SDV":null}
{"site_id":"gcqu6ktbnppj","brand":"AppleGreen","address":"1 Wellington Road, Burton","postcode":"DE14 2AP","last_updated":"24\/04\/2024 11:50:14","latitude":52.803078,"longitude":-1.650772,"B7":1.579,"E10":1.499,"E5":1.639,"SDV":1.719}
{"site_id":"gcnjjtf5qtmm","brand":"AppleGreen","address":"Applegreen Patchway Service Station, Bristol","postcode":"BS34 6NA","last_updated":"24\/04\/2024 11:50:14","latitude":51.536079,"longitude":-2.567768,"B7":1.558,"E10":1.478,"E5":1.618,"SDV":null}
{"site_id":"gcw2tgwmbhqd","brand":"AppleGreen","address":"Manchester new rd, Manchester","postcode":"M24 1DE","last_updated":"24\/04\/2024 11:50:14","latitude":53.545627,"longitude":-2.19966,"B7":1.548,"E10":1.468,"E5":1.608,"SDV":1.688}
{"site_id":"u10rhhpqsf4q","brand":"AppleGreen","address":"142 Rayne Road, Essex","postcode":"CM7 2QS","last_updated":"24\/04\/2024 11:50:14","latitude":51.878569,"longitude":0.537507,"B7":1.508,"E10":1.458,"E5":1.598,"SDV":1.648}
{"site_id":"gcnngrnhe00v","brand":"AppleGreen","address":"Calcott, Ross-on-wye","postcode":"hr9 6dw","last_updated":"24\/04\/2024 11:50:14","latitude":51.850749,"longitude":-2.661308,"B7":1.618,"E10":1.538,"E5":1.678,"SDV":1.758}
{"site_id":"gcnhsk2yzub8","brand":"TEXACO","address":"Ambassador, Winterstoke Road, Ashton Vale, Bristol.","postcode":"BS3 2NP","last_updated":"24\/04\/2024 11:50:16","latitude":51.440545,"longitude":-2.624369,"B7":1.579,"E10":1.499,"E5":null,"SDV":null}
{"site_id":"gcqfydrhb9q5","brand":"BP","address":"Anker, Weddington Road, Nuneaton.","postcode":"CV10 0AD","last_updated":"24\/04\/2024 11:50:16","latitude":52.52783,"longitude":-1.462525,"B7":1.557,"E10":1.497,"E5":null,"SDV":null}
{"site_id":"gcpqrk38f7ps","brand":"JET ","address":"Ash, London Road, Wendover.","postcode":"HP22 6PN","last_updated":"24\/04\/2024 11:50:16","latitude":51.747124,"longitude":-0.733917,"B7":1.549,"E10":1.469,"E5":null,"SDV":null}
{"site_id":"u10nhp3xvjpq","brand":"JET ","address":"Bassett, 215 High Road, North Weald, Epping.","postcode":"CM16 6ED","last_updated":"24\/04\/2024 11:50:16","latitude":51.720871,"longitude":0.178065,"B7":1.579,"E10":1.499,"E5":null,"SDV":null}
{"site_id":"gcw527se603u","brand":"BP","address":"Bowling Green, Scotforth Rd, Lancaster.","postcode":"LA1 4SG","last_updated":"24\/04\/2024 11:50:16","latitude":54.028575,"longitude":-2.795245,"B7":1.589,"E10":1.499,"E5":null,"SDV":null}
{"site_id":"gcnh7wz5tw7f","brand":"SHELL","address":"Bridgwater Road, Bristol.","postcode":"BS41 8JP","last_updated":"24\/04\/2024 11:50:16","latitude":51.409784,"longitude":-2.648837,"B7":1.579,"E10":1.499,"E5":null,"SDV":null}
{"site_id":"gcjyg47qu66q","brand":"BP","address":"Brecon Road, Brecon Road, Abergavenny.","postcode":"NP7 7RB","last_updated":"24\/04\/2024 11:50:16","latitude":51.825054,"longitude":-3.027577,"B7":1.589,"E10":1.489,"E5":null,"SDV":null}
{"site_id":"gcrfcbhmt8rb","brand":"JET ","address":"Broadway, 289 Broadway, Yaxley, Peterborough.","postcode":"PE7 3NR","last_updated":"24\/04\/2024 11:50:16","latitude":52.515594,"longitude":-0.268575,"B7":1.559,"E10":1.499,"E5":null,"SDV":null}
{"site_id":"gcpx5z8rjuf6","brand":"BP","address":"Chalk Hill, Watling Street, Dunstable, Bedfordshire.","postcode":"LU6 1RS","last_updated":"24\/04\/2024 11:50:16","latitude":51.897895,"longitude":-0.537736,"B7":1.579,"E10":1.499,"E5":null,"SDV":null}
{"site_id":"gcjcktmg38u4","brand":"TEXACO","address":"Chard, East Street, Chard, Somerset.","postcode":"TA20 1EP","last_updated":"24\/04\/2024 11:50:16","latitude":50.874128,"longitude":-2.958342,"B7":1.519,"E10":1.459,"E5":null,"SDV":null}
{"site_id":"gcntkbrkv7tc","brand":"ESSO","address":"Coped Hall, Swindon Road, Royal Wootton Bassett, Swindon.","postcode":"SN4 8ES","last_updated":"24\/04\/2024 11:50:16","latitude":51.550059,"longitude":-1.890445,"B7":1.599,"E10":1.499,"E5":null,"SDV":null}
{"site_id":"gcj84753gb4b","brand":"ESSO","address":"Courtlands, 397 Exeter Road, Exmouth.","postcode":"EX8 3NS","last_updated":"24\/04\/2024 11:50:16","latitude":50.64178,"longitude":-3.41212,"B7":1.569,"E10":1.489,"E5":null,"SDV":null}
{"site_id":"gcm9kh3kqzhf","brand":"TEXACO","address":"Crossgates, Llandrindod Wells, Powys.","postcode":"LD1 6RE","last_updated":"24\/04\/2024 11:50:16","latitude":52.27509,"longitude":-3.337831,"B7":1.569,"E10":1.489,"E5":null,"SDV":null}
{"site_id":"gchqpksepufs","brand":"TEXACO","address":"Crossways, Haven Bridge Road, Neyland, Pembrokshire.","postcode":"SA73 1QZ","last_updated":"24\/04\/2024 11:50:16","latitude":51.704948,"longitude":-4.948318,"B7":1.549,"E10":1.459,"E5":null,"SDV":null}
{"site_id":"gcwbhr2r9f97","brand":"JET ","address":"Deepcar, 74 Manchester Road, Deepcar, Sheffield.","postcode":"S36 2RE","last_updated":"24\/04\/2024 11:50:16","latitude":53.478626,"longitude":-1.570624,"B7":1.569,"E10":1.499,"E5":null,"SDV":null}
{"site_id":"gcpg2wfq78y5","brand":"BP","address":"Dorking, 2 Reigate Road, Dorking, Surrey.","postcode":"RH14 1SG","last_updated":"24\/04\/2024 11:50:16","latitude":51.234445,"longitude":-0.326341,"B7":1.579,"E10":1.499,"E5":null,"SDV":null}
{"site_id":"gckcn95nyn34","brand":"TEXACO","address":"Dryslwyn, Llwyncelyn, Aberaeron, Ceredigion.","postcode":"SA46 0HF","last_updated":"24\/04\/2024 11:50:16","latitude":52.213717,"longitude":-4.280289,"B7":1.559,"E10":1.479,"E5":null,"SDV":null}
{"site_id":"gcjvbx712umv","brand":"TEXACO","address":"Enterprise, Bypass Road, Crumlin, Newport.","postcode":"NP11 4QJ","last_updated":"24\/04\/2024 11:50:16","latitude":51.675806,"longitude":-3.13793,"B7":1.547,"E10":1.467,"E5":null,"SDV":null}
{"site_id":"gcj838ye02ty","brand":"TEXACO","address":"Exton, Exmouth Road, Exton, Devon.","postcode":"EX3 0PQ","last_updated":"24\/04\/2024 11:50:16","latitude":50.673584,"longitude":-3.440762,"B7":1.579,"E10":1.489,"E5":null,"SDV":null}
{"site_id":"gchyf68d12z9","brand":"TEXACO","address":"A40 West, Carmarthen Road, Carmarthenshire.","postcode":"SA33 4NA","last_updated":"24\/04\/2024 11:50:16","latitude":51.825604,"longitude":-4.470685,"B7":1.569,"E10":1.469,"E5":null,"SDV":null}
{"site_id":"gcybpmfsw090","brand":"JET ","address":"Foxcover, Durham Rd, Middle Herrington, Sunderland.","postcode":"SR3 3ND","last_updated":"24\/04\/2024 11:50:16","latitude":54.876111,"longitude":-4.470685,"B7":1.537,"E10":1.457,"E5":null,"SDV":null}
{"site_id":"gcnsx0pswt0n","brand":"JET ","address":"Fyfield, Bath Road, Fyfield, Nr Marlborough.","postcode":"SN8 1PU","last_updated":"24\/04\/2024 11:50:16","latitude":54.876111,"longitude":-1.7911788,"B7":1.567,"E10":1.477,"E5":null,"SDV":null}
{"site_id":"gcqfy06jj1z5","brand":"JET ","address":"Glendale, Croft Road, Stockingford, Warwickshire.","postcode":"CV10 7EE","last_updated":"24\/04\/2024 11:50:16","latitude":52.5168898,"longitude":-1.4911698,"B7":1.559,"E10":1.499,"E5":null,"SDV":null}
{"site_id":"gcjneqcvz6p9","brand":"TEXACO","address":"Gorslas, Llandeilo Road, Gorslas, Llanelli.","postcode":"SA14 7LW","last_updated":"24\/04\/2024 11:50:16","latitude":51.8056545,"longitude":-4.0732025,"B7":1.537,"E10":1.457,"E5":null,"SDV":null}
{"site_id":"gchw001y5tyk","brand":"TEXACO","address":"Green Garage, Bush Hill, Pembroke, Pembrokeshire.","postcode":"SA71 4QT","last_updated":"24\/04\/2024 11:50:16","latitude":51.6807492,"longitude":-4.9193127,"B7":1.549,"E10":1.459,"E5":null,"SDV":null}
{"site_id":"gcqz6ke8r3my","brand":"TEXACO","address":"Hathersage, Main Road, Hathersage.","postcode":"S32 1BB","last_updated":"24\/04\/2024 11:50:16","latitude":53.330434,"longitude":-1.65381,"B7":1.599,"E10":1.489,"E5":null,"SDV":null}
{"site_id":"gcqfvchtgemj","brand":"TEXACO","address":"251 Haunchwood Road, Nuneaton, Warwickshire.","postcode":"CV10 8DE","last_updated":"24\/04\/2024 11:50:16","latitude":52.5211474,"longitude":-1.49879,"B7":1.589,"E10":1.499,"E5":null,"SDV":null}
{"site_id":"gcrj8fqknbs9","brand":"TEXACO","address":"Heanor, 129 Derby Road, Heanor, Derbyshire.","postcode":"DE75 7QL","last_updated":"24\/04\/2024 11:50:16","latitude":53.0110963,"longitude":-1.364412,"B7":1.557,"E10":1.467,"E5":null,"SDV":null}
{"site_id":"gcpzc5d8cvtj","brand":"JET ","address":"Henlow, 50 Bedford Road, Henlow, Bedfordshire.","postcode":"SG16 6DZ","last_updated":"24\/04\/2024 11:50:16","latitude":52.0066904,"longitude":-0.3041018,"B7":1.567,"E10":1.487,"E5":null,"SDV":null}
{"site_id":"gcnb8z091zcm","brand":"TEXACO","address":"Hinton, Lyndhurst Road, Hinton, Christchurch.","postcode":"BH23 7DS","last_updated":"24\/04\/2024 11:50:16","latitude":50.7515571,"longitude":-1.7240903,"B7":1.599,"E10":1.519,"E5":null,"SDV":null}
{"site_id":"gcmxn5r8x3w5","brand":"TEXACO","address":"Holywell, Holway Road, Holywell.","postcode":"CH8 7LQ","last_updated":"24\/04\/2024 11:50:16","latitude":53.2796661,"longitude":-3.2413339,"B7":1.557,"E10":1.477,"E5":null,"SDV":null}
{"site_id":"gbvnc931wh2h","brand":"TEXACO","address":"Honicknowle, Crownhill Road, Crownhill, Devon.","postcode":"PL5 3SL","last_updated":"24\/04\/2024 11:50:16","latitude":50.4124207,"longitude":-4.1512012,"B7":1.579,"E10":1.499,"E5":null,"SDV":null}
{"site_id":"gcr4r5etj0sq","brand":"ESSO","address":"Station Road, North Kilworth, Lutterworth.","postcode":"LE17 6EP","last_updated":"24\/04\/2024 11:50:16","latitude":52.4468462,"longitude":-1.0936058,"B7":1.579,"E10":1.499,"E5":null,"SDV":null}
{"site_id":"gchyc91rwrr0","brand":"TEXACO","address":"Ivy, Tenby Road, St Clears, Carmarthen.","postcode":"SA33 4JP","last_updated":"24\/04\/2024 11:50:16","latitude":51.8183432,"longitude":-4.5023995,"B7":1.569,"E10":1.469,"E5":null,"SDV":null}
{"site_id":"gcqmyg3h9nkb","brand":"JET ","address":"Jacks, 375 Ford Green Road, Stoke On Trent.","postcode":"ST6 8LX","last_updated":"24\/04\/2024 11:50:16","latitude":53.0606507,"longitude":-2.1628836,"B7":1.547,"E10":1.467,"E5":null,"SDV":null}
{"site_id":"gcmbgnvhhtfu","brand":"TEXACO","address":"Lomas, 18A Headbrook, Kington, Herefordshire.","postcode":"HR5 3DZ","last_updated":"24\/04\/2024 11:50:16","latitude":52.2008829,"longitude":-3.0251629,"B7":1.599,"E10":1.499,"E5":null,"SDV":null}
{"site_id":"gcxbfrrg19e5","brand":"JET ","address":"Luxmore East, A180 Eastbound, Immingham.","postcode":"DN40 3BH","last_updated":"24\/04\/2024 11:50:16","latitude":53.609685,"longitude":-0.241974,"B7":1.519,"E10":1.459,"E5":null,"SDV":null}
{"site_id":"gcxbfrnxxd4k","brand":"JET ","address":"Luxmore West, A180 Westbound, Immingham.","postcode":"DN40 3BH","last_updated":"24\/04\/2024 11:50:16","latitude":53.609087,"longitude":-0.243434,"B7":1.519,"E10":1.459,"E5":null,"SDV":null}
{"site_id":"gcm70q2vcdut","brand":"TEXACO","address":"Machynlleth, Heol Y Doll, Machynlleth.","postcode":"SY20 8BH","last_updated":"24\/04\/2024 11:50:16","latitude":52.5939288,"longitude":-3.8551006,"B7":1.549,"E10":1.489,"E5":null,"SDV":null}
{"site_id":"gcjpqyrvj006","brand":"TEXACO","address":"Manordeilo, A40 Manordeilo, Llandeilo.","postcode":"SA19 7BN","last_updated":"24\/04\/2024 11:50:16","latitude":51.9346049,"longitude":-3.9112611,"B7":1.549,"E10":1.489,"E5":null,"SDV":null}
{"site_id":"gbvnd952hze6","brand":"TEXACO","address":"Morley, 6 Billacombe Road, Pomphlett, Plymouth.","postcode":"PL9 7HP","last_updated":"24\/04\/2024 11:50:16","latitude":50.3668617,"longitude":-4.1042152,"B7":1.557,"E10":1.477,"E5":null,"SDV":null}
{"site_id":"gcwh32e2ycd9","brand":"ESSO","address":"Mossdale, A6 Road, Burton, Carnforth.","postcode":"LA5 9RW","last_updated":"24\/04\/2024 11:50:16","latitude":54.1874536,"longitude":-2.7528124,"B7":1.527,"E10":1.497,"E5":null,"SDV":null}
{"site_id":"gcpxyqfz7d0z","brand":"JET ","address":"New County, Bedford Road, Clophill, Bedfordshire.","postcode":"MK45 4AP","last_updated":"24\/04\/2024 11:50:16","latitude":52.0256396,"longitude":-0.4245391,"B7":1.559,"E10":1.479,"E5":null,"SDV":null}
{"site_id":"gcr5w40s7k85","brand":"TEXACO","address":"Parker Drive, 126 Parker Drive, Leicester.","postcode":"LE4 0JF","last_updated":"24\/04\/2024 11:50:16","latitude":52.6582252,"longitude":-1.141752,"B7":1.569,"E10":1.499,"E5":null,"SDV":null}
{"site_id":"gcnrj1d6fj8v","brand":"TEXACO","address":"Parklands, A40 Northern Bypass, Longford, Gloucestershire.","postcode":"GL2 9DJ","last_updated":"24\/04\/2024 11:50:16","latitude":51.8642112,"longitude":-2.2380335,"B7":1.567,"E10":1.497,"E5":null,"SDV":null}
{"site_id":"gchqwwcu8xgv","brand":"TEXACO","address":"Pelcomb, St Davids Road, Keeston, Haverfordwest.","postcode":"SA62 6ED","last_updated":"24\/04\/2024 11:50:16","latitude":51.8054719,"longitude":-4.9853626,"B7":1.569,"E10":1.489,"E5":null,"SDV":null}
{"site_id":"gcr8wj2drbjy","brand":"JET ","address":"Putnoe, 122 Queens Drive, Putnoe, Bedfordshire.","postcode":"MK41 9JF","last_updated":"24\/04\/2024 11:50:16","latitude":52.1483672,"longitude":-0.4384256,"B7":1.579,"E10":1.499,"E5":null,"SDV":null}
{"site_id":"gcvqetnpzrb0","brand":"BP","address":"Refinery, 176 Bo'Ness Road, Grangemouth.","postcode":"FK3 9BU","last_updated":"24\/04\/2024 11:50:16","latitude":56.0151661,"longitude":-3.7048278,"B7":1.549,"E10":1.469,"E5":null,"SDV":null}
{"site_id":"gcm95h88yfqs","brand":"TEXACO","address":"Ridgebourne, Wellington Road, Llandrindod Wells, Powys.","postcode":"LD1 5NB","last_updated":"24\/04\/2024 11:50:16","latitude":52.2318917,"longitude":-3.382804,"B7":1.569,"E10":1.489,"E5":null,"SDV":null}
{"site_id":"gcn3sces4ymp","brand":"TEXACO","address":"Shillingstone, Blandford Road, Shillingstone, Dorset.","postcode":"DT11 0SF","last_updated":"24\/04\/2024 11:50:16","latitude":50.8976325,"longitude":-2.2472656,"B7":1.579,"E10":1.499,"E5":null,"SDV":null}
{"site_id":"gcqz3tb18y23","brand":"TEXACO","address":"Sickleholme,Hathersage Road, Bamford, Hope Valley.","postcode":"S33 0EB","last_updated":"24\/04\/2024 11:50:16","latitude":53.3375405,"longitude":-1.6918617,"B7":1.599,"E10":1.489,"E5":null,"SDV":null}
{"site_id":"gcr1267nkvqs","brand":"BP","address":"Southam, Coventry Road, Southam, Warwickshire.","postcode":"CV47 1BG","last_updated":"24\/04\/2024 11:50:16","latitude":52.2644375,"longitude":-1.3909309,"B7":1.589,"E10":1.499,"E5":null,"SDV":null}
{"site_id":"gcnhsmn3hpcr","brand":"TEXACO","address":"Southville, Coronation Road, Southville, Bristol.","postcode":"BS3 1RN","last_updated":"24\/04\/2024 11:50:16","latitude":51.4436961,"longitude":-2.6169763,"B7":1.579,"E10":1.499,"E5":null,"SDV":null}
{"site_id":"gfnmncrzfhm0","brand":"BP","address":"Springfield Road, Springfield Road, Aberdeen.","postcode":"AB15 7SE","last_updated":"24\/04\/2024 11:50:16","latitude":57.1371259,"longitude":-2.1535712,"B7":1.559,"E10":1.499,"E5":null,"SDV":null}
{"site_id":"u130buw5mpg6","brand":"SHELL","address":"Stratford, Main Road, Saxmundham.","postcode":"IP17 1LF","last_updated":"24\/04\/2024 11:50:16","latitude":52.1884054,"longitude":1.4476683,"B7":1.527,"E10":1.497,"E5":null,"SDV":null}
{"site_id":"gchyuw87yy5q","brand":"TEXACO","address":"Tenby Road, Lysonnen Road, Carmarthen.","postcode":"SA33 5DT","last_updated":"24\/04\/2024 11:50:16","latitude":51.8479055,"longitude":-4.3719214,"B7":1.569,"E10":1.469,"E5":null,"SDV":null}
{"site_id":"gcw527h9bqs9","brand":"SHELL","address":"Toll Bar, 166 Scotforth Rd, Lancaster.","postcode":"LA1 4NS","last_updated":"24\/04\/2024 11:50:16","latitude":54.0256039,"longitude":-2.7953168,"B7":1.589,"E10":1.499,"E5":null,"SDV":null}
{"site_id":"gcnrjnyf35nb","brand":"BP","address":"Twigworth, Tewksbury Road, Gloucester, Gloucestershire.","postcode":"GL2 9PG","last_updated":"24\/04\/2024 11:50:16","latitude":51.8929498,"longitude":-2.2318888,"B7":1.567,"E10":1.497,"E5":null,"SDV":null}
{"site_id":"gcrp6w0h4bfc","brand":"BP","address":"Wales Bar, Mansfield Road, Walesbar, Sheffield.","postcode":"S26 5PE","last_updated":"24\/04\/2024 11:50:16","latitude":53.3393142,"longitude":-1.2962651,"B7":1.557,"E10":1.477,"E5":null,"SDV":null}
{"site_id":"gcrwuvyx5kmf","brand":"JET ","address":"Wragby Road, Wragby Road East, Lincoln.","postcode":"LN2 4QY","last_updated":"24\/04\/2024 11:50:16","latitude":53.2505838,"longitude":-0.4853114,"B7":1.557,"E10":1.497,"E5":null,"SDV":null}
{"site_id":"gcpqy0b2y5uw","brand":"BP","address":"Oakfield Road, Aylesbury, Buckinghamshire, South East","postcode":"HP20 1JJ","last_updated":"24\/04\/2024 11:50:16","latitude":51.8157932,"longitude":-0.7904087,"B7":1.547,"E10":1.457,"E5":null,"SDV":null}
{"site_id":"gcqfn1wd5k4j","brand":"ASDA","address":"Abbey Park - North London Road, Coventry","postcode":"CV3 4AR","last_updated":"25\/04\/2024 00:00:00","latitude":52.391463,"longitude":-1.484944,"B7":1.577,"E10":1.487,"E5":null,"SDV":null}
{"site_id":"gcjw4hhp6ywh","brand":"ASDA","address":"Riverside Retail Park, Aberdare","postcode":"CF44 0AH","last_updated":"25\/04\/2024 00:00:00","latitude":51.702332,"longitude":-3.416855,"B7":1.557,"E10":1.457,"E5":null,"SDV":null}
{"site_id":"gfj6057mn7se","brand":"ASDA","address":"46 Dunkeld Street, Aberfeldy","postcode":"PH15 2AF","last_updated":"25\/04\/2024 00:00:00","latitude":56.620278,"longitude":-3.862503,"B7":1.597,"E10":1.517,"E5":null,"SDV":null}
{"site_id":"gcw3f404j0sc","brand":"ASDA","address":"Hyndburn Road, Accrington","postcode":"BB5 1PY","last_updated":"25\/04\/2024 00:00:00","latitude":53.756449,"longitude":-2.372825,"B7":1.517,"E10":1.457,"E5":null,"SDV":null}
{"site_id":"gcnvgfzs2pgq","brand":"ASDA","address":"Park Road, Faringdon","postcode":"SN7 7BU","last_updated":"25\/04\/2024 00:00:00","latitude":51.650861,"longitude":-1.57766,"B7":1.547,"E10":1.507,"E5":null,"SDV":null}
{"site_id":"gcrn076n5e8h","brand":"ASDA","address":"Chesterfield Rd, Alfreton","postcode":"DE55 6AW","last_updated":"25\/04\/2024 00:00:00","latitude":53.114062,"longitude":-1.396272,"B7":1.587,"E10":1.507,"E5":null,"SDV":null}
{"site_id":"gctbkcge1y1u","brand":"ASDA","address":"Ormskirk Road, Liverpool","postcode":"L10 3LN","last_updated":"25\/04\/2024 00:00:00","latitude":53.489995,"longitude":-2.948134,"B7":1.537,"E10":1.457,"E5":null,"SDV":null}
{"site_id":"u10j2f87ut0h","brand":"ASDA","address":"19 Aldersbrook Road, Greater London","postcode":"E12 5HH","last_updated":"25\/04\/2024 00:00:00","latitude":51.562279,"longitude":0.033447,"B7":1.557,"E10":1.497,"E5":null,"SDV":null}
{"site_id":"gcvr1zcguq8c","brand":"ASDA","address":"Whins Road, Alloa","postcode":"FK10 3SD","last_updated":"25\/04\/2024 00:00:00","latitude":56.1194,"longitude":-3.78232,"B7":1.557,"E10":1.467,"E5":null,"SDV":null}
{"site_id":"gcqrdrnfh9nk","brand":"ASDA","address":"Dunham Road, Altrincham","postcode":"WA14 4NX","last_updated":"25\/04\/2024 00:00:00","latitude":53.38873,"longitude":-2.351795,"B7":1.577,"E10":1.497,"E5":null,"SDV":null}
{"site_id":"gcqrksxqfqs8","brand":"ASDA","address":"Altrincham Road, Wilmslow","postcode":"SK9 5NN","last_updated":"25\/04\/2024 00:00:00","latitude":53.332448,"longitude":-2.254111,"B7":1.577,"E10":1.487,"E5":null,"SDV":null}
{"site_id":"gcqrf0z0djjt","brand":"ASDA","address":"90 George Richards Way, Broadheath, Altrincham","postcode":"WA14 5ZR","last_updated":"25\/04\/2024 00:00:00","latitude":53.398236,"longitude":-2.364485,"B7":1.547,"E10":1.467,"E5":null,"SDV":null}
{"site_id":"gcwfmhm1kf01","brand":"ASDA","address":"495 Harrogate Road, Leeds","postcode":"LS17 7DA","last_updated":"25\/04\/2024 00:00:00","latitude":53.856572,"longitude":-1.531034,"B7":1.547,"E10":1.487,"E5":null,"SDV":null}
{"site_id":"gcng0h8cf4v2","brand":"ASDA","address":"Mid Summer Place, Salisbury","postcode":"SP4 7SQ","last_updated":"25\/04\/2024 00:00:00","latitude":51.177378,"longitude":-1.756689,"B7":1.537,"E10":1.437,"E5":null,"SDV":null}
{"site_id":"gcyck033zj0b","brand":"ASDA","address":"Moorfarm Roundabout, Cramlington","postcode":"NE23 7QA","last_updated":"25\/04\/2024 00:00:00","latitude":55.065163,"longitude":-1.579758,"B7":1.577,"E10":1.487,"E5":null,"SDV":null}
{"site_id":"gfn1sw82gxsx","brand":"ASDA","address":"Westway Retail Park, Dundee Road, Arbroath","postcode":"DD11 2NQ","last_updated":"25\/04\/2024 00:00:00","latitude":56.550282,"longitude":-2.612557,"B7":1.537,"E10":1.477,"E5":null,"SDV":null}
{"site_id":"gcusd2vbmqxg","brand":"ASDA","address":"Harbour Road, Adrossan","postcode":"KA22 8BZ","last_updated":"25\/04\/2024 00:00:00","latitude":55.63851,"longitude":-4.81792,"B7":1.537,"E10":1.457,"E5":null,"SDV":null}
{"site_id":"gcqdtxr60tsb","brand":"ASDA","address":"Powick Road, Birmingham","postcode":"B23 7PG","last_updated":"25\/04\/2024 00:00:00","latitude":52.510235,"longitude":-1.858839,"B7":1.567,"E10":1.477,"E5":null,"SDV":null}
{"site_id":"gcvmujb97yvx","brand":"ASDA","address":"Station Road, Armadale","postcode":"EH48 2JS","last_updated":"25\/04\/2024 00:00:00","latitude":55.886474,"longitude":-3.690379,"B7":1.557,"E10":1.477,"E5":null,"SDV":null}
{"site_id":"gcwfh1sjpc9d","brand":"ASDA","address":"Armley Road, Leeds","postcode":"LS12 2QN","last_updated":"25\/04\/2024 00:00:00","latitude":53.798224,"longitude":-1.576425,"B7":1.547,"E10":1.497,"E5":null,"SDV":null}
{"site_id":"gcrjw35ngpww","brand":"ASDA","address":"111-127 Front Street, Arnold, Nottingham","postcode":"NG5 7ED","last_updated":"25\/04\/2024 00:00:00","latitude":53.005687,"longitude":-1.128233,"B7":1.547,"E10":1.447,"E5":null,"SDV":null}
{"site_id":"gcmz9gwrk107","brand":"ASDA","address":"Woodchurch Road, Birkenhead","postcode":"CH49 5PD","last_updated":"25\/04\/2024 00:00:00","latitude":53.370086,"longitude":-3.078403,"B7":1.547,"E10":1.457,"E5":null,"SDV":null}
{"site_id":"gcps2xp0j8gn","brand":"ASDA","address":"High Street, Ascot","postcode":"SL5 7HB","last_updated":"25\/04\/2024 00:00:00","latitude":51.410261,"longitude":-0.67253,"B7":1.577,"E10":1.497,"E5":null,"SDV":null}
{"site_id":"gcqunfb7vc29","brand":"ASDA","address":"Ashby Gateway, Ashby de la Zouch","postcode":"LE65 1JP","last_updated":"25\/04\/2024 00:00:00","latitude":52.751774,"longitude":-1.449282,"B7":1.577,"E10":1.477,"E5":null,"SDV":null}
{"site_id":"gcycue3w57qp","brand":"ASDA","address":"Newbiggin Road, Ashington","postcode":"NE63 0XF","last_updated":"25\/04\/2024 00:00:00","latitude":55.170054,"longitude":-1.55608,"B7":1.607,"E10":1.487,"E5":null,"SDV":null}
{"site_id":"gcycunp936gs","brand":"ASDA","address":"Portland Park, Lintonville Terrace, Ashington","postcode":"NE63 9XG","last_updated":"25\/04\/2024 00:00:00","latitude":55.184674,"longitude":-1.571892,"B7":1.577,"E10":1.457,"E5":null,"SDV":null}
{"site_id":"gcw822dkfw37","brand":"ASDA","address":"Cavendish Street, Ashton-Under-Lyne","postcode":"OL6 7PF","last_updated":"25\/04\/2024 00:00:00","latitude":53.483829,"longitude":-2.094949,"B7":1.537,"E10":1.437,"E5":null,"SDV":null}
{"site_id":"gcw227f137e4","brand":"ASDA","address":"Manchester Road, Manchester","postcode":"M29 7BQ","last_updated":"25\/04\/2024 00:00:00","latitude":53.502278,"longitude":-2.447146,"B7":1.567,"E10":1.487,"E5":null,"SDV":null}
{"site_id":"gcrpd69644rh","brand":"ASDA","address":"Worksop Road, Sheffield","postcode":"S26 2EA","last_updated":"25\/04\/2024 00:00:00","latitude":53.363698,"longitude":-1.305561,"B7":1.567,"E10":1.487,"E5":null,"SDV":null}
{"site_id":"gcqdsgr183jg","brand":"ASDA","address":"305 Corporation Street, Birmingham","postcode":"B4 7DT","last_updated":"25\/04\/2024 00:00:00","latitude":52.488816,"longitude":-1.89097,"B7":1.587,"E10":1.487,"E5":null,"SDV":null}
{"site_id":"gcuex7v522d1","brand":"ASDA","address":"Liberator Drive, Heathfield Retail Park, Ayr","postcode":"KA8 9BF","last_updated":"25\/04\/2024 00:00:00","latitude":55.480174,"longitude":-4.596262,"B7":1.537,"E10":1.447,"E5":null,"SDV":null}
{"site_id":"gcexrrxsjt5h","brand":"ASDA","address":"Park Street, Ballyclare","postcode":"BT39 9DQ","last_updated":"25\/04\/2024 00:00:00","latitude":54.753845,"longitude":-5.998971,"B7":1.517,"E10":1.437,"E5":null,"SDV":null}
{"site_id":"gcg81k9xve76","brand":"ASDA","address":"121 Broughshane Street, Ballymena","postcode":"BT43 6EE","last_updated":"25\/04\/2024 00:00:00","latitude":54.869817,"longitude":-6.270892,"B7":1.507,"E10":1.427,"E5":null,"SDV":null}
{"site_id":"gcr01ccvbz80","brand":"ASDA","address":"Oxford Road, Banbury","postcode":"OX15 4AB","last_updated":"25\/04\/2024 00:00:00","latitude":52.042603,"longitude":-1.327494,"B7":1.527,"E10":1.487,"E5":null,"SDV":null}
{"site_id":"gcmne91eyyy3","brand":"ASDA","address":"Junction A5\/55 Expressway, Bangor","postcode":"LL57 4BG","last_updated":"25\/04\/2024 00:00:00","latitude":53.203499,"longitude":-4.105557,"B7":1.587,"E10":1.497,"E5":null,"SDV":null}
{"site_id":"gcmnccpwj6yf","brand":"ASDA","address":"Farrar Road, Bangor","postcode":"LL57 1LJ","last_updated":"25\/04\/2024 00:00:00","latitude":53.224381,"longitude":-4.131761,"B7":1.557,"E10":1.467,"E5":null,"SDV":null}
{"site_id":"gceyzn84ugbk","brand":"ASDA","address":"89-105 Main St, Bangor","postcode":"BT20 4SD","last_updated":"25\/04\/2024 00:00:00","latitude":54.660222,"longitude":-5.668741,"B7":1.507,"E10":1.427,"E5":null,"SDV":null}
{"site_id":"gcz02151s37w","brand":"ASDA","address":"Durham Road, Sunderland","postcode":"SR2 7RB","last_updated":"25\/04\/2024 00:00:00","latitude":54.893194,"longitude":-1.401674,"B7":1.557,"E10":1.487,"E5":null,"SDV":null}
{"site_id":"gcqd6fyv9z95","brand":"ASDA","address":"51 Barnes Hill, Birmingham","postcode":"B29 5UP","last_updated":"25\/04\/2024 00:00:00","latitude":52.442849,"longitude":-1.979179,"B7":1.507,"E10":1.437,"E5":null,"SDV":null}
{"site_id":"gcwbwqmvqkzc","brand":"ASDA","address":"Old Mill Lane, Barnsley","postcode":"S71 1LN","last_updated":"25\/04\/2024 00:00:00","latitude":53.560015,"longitude":-1.473065,"B7":1.557,"E10":1.477,"E5":null,"SDV":null}
{"site_id":"gcj4e6qg3fzb","brand":"ASDA","address":"Anchorwood Retail Park, Taw Wharf, Barnstaple","postcode":"EX31 2BN","last_updated":"25\/04\/2024 00:00:00","latitude":51.076563,"longitude":-4.065875,"B7":1.557,"E10":1.477,"E5":null,"SDV":null}
{"site_id":"gcqpnb6c70xz","brand":"ASDA","address":"23-29 Leicester Street, Barons Quay, Northwich","postcode":"CW9 5LG","last_updated":"25\/04\/2024 00:00:00","latitude":53.263913,"longitude":-2.512565,"B7":1.537,"E10":1.457,"E5":null,"SDV":null}
{"site_id":"gcuvkn6f6ddu","brand":"ASDA","address":"4 Church Road, Barrhead","postcode":"G78 1FA","last_updated":"25\/04\/2024 00:00:00","latitude":55.800762,"longitude":-4.391594,"B7":1.527,"E10":1.447,"E5":null,"SDV":null}
{"site_id":"gcw633rdurqc","brand":"ASDA","address":"Holm Road, Clitheroe","postcode":"BB7 9WF","last_updated":"25\/04\/2024 00:00:00","latitude":53.84042,"longitude":-2.395527,"B7":1.547,"E10":1.477,"E5":null,"SDV":null}
{"site_id":"gcteyke66d8h","brand":"ASDA","address":"Walney Road, Barrow-In-Furness","postcode":"LA14 5UG","last_updated":"25\/04\/2024 00:00:00","latitude":54.121812,"longitude":-3.236439,"B7":1.567,"E10":1.487,"E5":null,"SDV":null}
{"site_id":"gcjsmkt55ek2","brand":"ASDA","address":"Ffordd Y Mileniwm, Barry","postcode":"CF62 5AT","last_updated":"25\/04\/2024 00:00:00","latitude":51.397238,"longitude":-3.270975,"B7":1.587,"E10":1.487,"E5":null,"SDV":null}
{"site_id":"gcx9msxdqdh6","brand":"ASDA","address":"A1077 Ferriby Road, Barton-Upon-Humber","postcode":"DN18 5LQ","last_updated":"25\/04\/2024 00:00:00","latitude":53.680519,"longitude":-0.454789,"B7":1.557,"E10":1.497,"E5":null,"SDV":null}
{"site_id":"u10m6eckyrvs","brand":"ASDA","address":"Eastgate Shopping Centre, Basildon","postcode":"SS14 1AE","last_updated":"25\/04\/2024 00:00:00","latitude":51.569448,"longitude":0.460496,"B7":1.557,"E10":1.477,"E5":null,"SDV":null}
{"site_id":"gcp5x64y16yq","brand":"ASDA","address":"Grove Road, Basingstoke","postcode":"RG21 3AX","last_updated":"25\/04\/2024 00:00:00","latitude":51.253475,"longitude":-1.080943,"B7":1.567,"E10":1.487,"E5":null,"SDV":null}
{"site_id":"gcn8t3q6ku0d","brand":"ASDA","address":"Bath Road, Bournemouth","postcode":"BH1 2NJ","last_updated":"25\/04\/2024 00:00:00","latitude":50.720019,"longitude":-1.869557,"B7":1.577,"E10":1.497,"E5":null,"SDV":null}
{"site_id":"gcppsu00f9ys","brand":"ASDA","address":"Baynards Green Service Station, A43, Bicester","postcode":"OX27 7SG","last_updated":"25\/04\/2024 00:00:00","latitude":51.958466,"longitude":-1.202709,"B7":1.637,"E10":1.557,"E5":null,"SDV":null}
{"site_id":"gcq59nnuq9um","brand":"ASDA","address":"Hereford Road, Shrewsbury","postcode":"SY3 0DA","last_updated":"25\/04\/2024 00:00:00","latitude":52.682076,"longitude":-2.759965,"B7":1.547,"E10":1.497,"E5":null,"SDV":null}
{"site_id":"gcuyjerngg5j","brand":"ASDA","address":"80 Milngavie Road, Glasgow","postcode":"G61 2TX","last_updated":"25\/04\/2024 00:00:00","latitude":55.917466,"longitude":-4.318835,"B7":1.577,"E10":1.467,"E5":null,"SDV":null}
{"site_id":"u10j164kt8e3","brand":"ASDA","address":"Tollgate Road, Beckton","postcode":"E6 5JP","last_updated":"25\/04\/2024 00:00:00","latitude":51.515668,"longitude":0.058262,"B7":1.557,"E10":1.467,"E5":null,"SDV":null}
{"site_id":"gcnhsvn6b08s","brand":"ASDA","address":"East Street, Bristol","postcode":"BS3 4JY","last_updated":"25\/04\/2024 00:00:00","latitude":51.443957,"longitude":-2.595176,"B7":1.557,"E10":1.477,"E5":null,"SDV":null}
{"site_id":"gcwcukh7f4v1","brand":"ASDA","address":"Old Lane, Beeston, Leeds","postcode":"LS11 8AG","last_updated":"25\/04\/2024 00:00:00","latitude":53.7659,"longitude":-1.563835,"B7":1.517,"E10":1.437,"E5":null,"SDV":null}
{"site_id":"gcpqjpdmdxdk","brand":"ASDA","address":"Bell Street, Princes Risborough","postcode":"HP27 0DG","last_updated":"25\/04\/2024 00:00:00","latitude":51.721848,"longitude":-0.831862,"B7":1.537,"E10":1.497,"E5":null,"SDV":null}
{"site_id":"gcpedgy96sdd","brand":"ASDA","address":"Woking Road, Guildford","postcode":"GU1 1NH","last_updated":"25\/04\/2024 00:00:00","latitude":51.260925,"longitude":-0.573568,"B7":1.577,"E10":1.497,"E5":null,"SDV":null}
{"site_id":"gcpv8c9p6urb","brand":"ASDA","address":"Belmont Circle, Harrow","postcode":"HA3 8SF","last_updated":"25\/04\/2024 00:00:00","latitude":51.601277,"longitude":-0.317093,"B7":1.567,"E10":1.477,"E5":null,"SDV":null}
{"site_id":"gcycj00tb2s9","brand":"ASDA","address":"Whitley Road, Newcastle upon Tyne","postcode":"NE12 9SJ","last_updated":"25\/04\/2024 00:00:00","latitude":55.020552,"longitude":-1.536797,"B7":1.567,"E10":1.477,"E5":null,"SDV":null}
{"site_id":"gcpvne36gtnz","brand":"ASDA","address":"112 Vallance Road, London","postcode":"E1 5BW","last_updated":"25\/04\/2024 00:00:00","latitude":51.522486,"longitude":-0.063939,"B7":1.537,"E10":1.457,"E5":null,"SDV":null}
{"site_id":"gcqf2gm95zy5","brand":"ASDA","address":"Coventry Road, Solihull","postcode":"B92 0EH","last_updated":"25\/04\/2024 00:00:00","latitude":52.444819,"longitude":-1.72183,"B7":1.607,"E10":1.507,"E5":null,"SDV":null}
{"site_id":"gchfpteqfd3j","brand":"ASDA","address":"Clovelly Road, Bideford","postcode":"EX39 3QU","last_updated":"25\/04\/2024 00:00:00","latitude":51.00771,"longitude":-4.23816,"B7":1.567,"E10":1.477,"E5":null,"SDV":null}
{"site_id":"u105bv8959tq","brand":"ASDA","address":"141 Main Road, Westerham","postcode":"TN16 3DX","last_updated":"25\/04\/2024 00:00:00","latitude":51.314633,"longitude":0.033792,"B7":1.577,"E10":1.487,"E5":null,"SDV":null}
{"site_id":"gcw06pwp93q4","brand":"ASDA","address":"275 Upholland Road, Wigan","postcode":"WN5 7DN","last_updated":"25\/04\/2024 00:00:00","latitude":53.523795,"longitude":-2.71635,"B7":1.547,"E10":1.487,"E5":null,"SDV":null}
{"site_id":"gcq7qhd1msfg","brand":"ASDA","address":"Wolverhampton Road, Codsall","postcode":"WV8 1PD","last_updated":"25\/04\/2024 00:00:00","latitude":52.624197,"longitude":-2.186554,"B7":1.537,"E10":1.487,"E5":null,"SDV":null}
{"site_id":"gcqpy7w7ewjs","brand":"ASDA","address":"1 Dewhurst Road, Warrington","postcode":"WA3 7PG","last_updated":"25\/04\/2024 00:00:00","latitude":53.414385,"longitude":-2.526637,"B7":1.537,"E10":1.467,"E5":null,"SDV":null}
{"site_id":"gcqyz80hrwft","brand":"ASDA","address":"Derby Road, Chesterfield","postcode":"S40 2EU","last_updated":"25\/04\/2024 00:00:00","latitude":53.21854,"longitude":-1.427897,"B7":1.577,"E10":1.497,"E5":null,"SDV":null}
{"site_id":"gfjc6s22p2cn","brand":"ASDA","address":"Birkhill Auto Point, Dundee","postcode":"DD2 5RG","last_updated":"25\/04\/2024 00:00:00","latitude":56.493077,"longitude":-3.053543,"B7":1.577,"E10":1.507,"E5":null,"SDV":null}
{"site_id":"gcwycyjns2mb","brand":"ASDA","address":"South Church Road, Bishop Auckland","postcode":"DL14 7LB","last_updated":"25\/04\/2024 00:00:00","latitude":54.65803,"longitude":-1.67133,"B7":1.537,"E10":1.437,"E5":null,"SDV":null}
{"site_id":"gcvn04g48exf","brand":"ASDA","address":"276 Kirkintilloch Road, Glasgow","postcode":"G64 2PT","last_updated":"25\/04\/2024 00:00:00","latitude":55.913992,"longitude":-4.214598,"B7":1.567,"E10":1.467,"E5":null,"SDV":null}
{"site_id":"gcw2gb89u16v","brand":"ASDA","address":"530 Manchester Road, Bury","postcode":"BL9 9ST","last_updated":"25\/04\/2024 00:00:00","latitude":53.570807,"longitude":-2.293848,"B7":1.577,"E10":1.497,"E5":null,"SDV":null}
{"site_id":"gctf53d64e3x","brand":"ASDA","address":"Cherry Tree Road, Blackpool","postcode":"FY4 4QH","last_updated":"25\/04\/2024 00:00:00","latitude":53.796873,"longitude":-3.017296,"B7":1.547,"E10":1.467,"E5":null,"SDV":null}
{"site_id":"gcjtzmfk1y3j","brand":"ASDA","address":"High Street, Blackwood","postcode":"NP12 0NT","last_updated":"25\/04\/2024 00:00:00","latitude":51.668049,"longitude":-3.193855,"B7":1.547,"E10":1.477,"E5":null,"SDV":null}
{"site_id":"gcvj6fw2m0cc","brand":"ASDA","address":"East Ave, Blantyre","postcode":"G72 0JB","last_updated":"25\/04\/2024 00:00:00","latitude":55.779669,"longitude":-4.091449,"B7":1.587,"E10":1.507,"E5":null,"SDV":null}
{"site_id":"gcvj6uws2npw","brand":"ASDA","address":"Glasgow Road, Blantyre","postcode":"G72 0AQ","last_updated":"25\/04\/2024 00:00:00","latitude":55.794753,"longitude":-4.094542,"B7":1.557,"E10":1.477,"E5":null,"SDV":null}
{"site_id":"gcrpxygktuc9","brand":"ASDA","address":"Moto Service Area, Hilltop Roundabout, Worksop","postcode":"S81 8HG","last_updated":"25\/04\/2024 00:00:00","latitude":53.388305,"longitude":-1.06139,"B7":1.779,"E10":1.699,"E5":null,"SDV":null}
{"site_id":"gcycses0uvme","brand":"ASDA","address":"Cowpen Road, Blyth","postcode":"NE24 4LZ","last_updated":"25\/04\/2024 00:00:00","latitude":55.127152,"longitude":-1.55507,"B7":1.557,"E10":1.467,"E5":null,"SDV":null}
{"site_id":"gbuxhumt6s4d","brand":"ASDA","address":"Launceston Road, Bodmin","postcode":"PL31 2AR","last_updated":"25\/04\/2024 00:00:00","latitude":50.47602,"longitude":-4.70314,"B7":1.587,"E10":1.497,"E5":null,"SDV":null}
{"site_id":"gcybwenbxtbz","brand":"ASDA","address":"North Road, Boldon Colliery, Newcastle upon Tyne","postcode":"NE35 9AR","last_updated":"25\/04\/2024 00:00:00","latitude":54.947773,"longitude":-1.462712,"B7":1.537,"E10":1.437,"E5":null,"SDV":null}
{"site_id":"gcw2bteuc2hy","brand":"ASDA","address":"Moss Bank Way, Bolton","postcode":"BL1 8QG","last_updated":"25\/04\/2024 00:00:00","latitude":53.600355,"longitude":-2.433746,"B7":1.557,"E10":1.467,"E5":null,"SDV":null}
{"site_id":"gctbhmtstnt3","brand":"ASDA","address":"Orrell Lane, Bootle","postcode":"L20 6HX","last_updated":"25\/04\/2024 00:00:00","latitude":53.46852,"longitude":-2.96952,"B7":1.527,"E10":1.447,"E5":null,"SDV":null}
{"site_id":"gctb5f88udbe","brand":"ASDA","address":"81 Strand Road, Bootle","postcode":"L20 4BB","last_updated":"25\/04\/2024 00:00:00","latitude":53.451377,"longitude":-2.998387,"B7":1.547,"E10":1.457,"E5":null,"SDV":null}
{"site_id":"gcpqtxx2ybd9","brand":"ASDA","address":"Wendover Road, Aylesbury","postcode":"HP21 9LB","last_updated":"25\/04\/2024 00:00:00","latitude":51.80977,"longitude":-0.803559,"B7":1.527,"E10":1.497,"E5":null,"SDV":null}
{"site_id":"gcrvrk8thdef","brand":"ASDA","address":"Lister Way, Boston","postcode":"PE21 8EQ","last_updated":"25\/04\/2024 00:00:00","latitude":52.979693,"longitude":-0.032074,"B7":1.557,"E10":1.467,"E5":null,"SDV":null}
{"site_id":"gcvj7xmhccb3","brand":"ASDA","address":"M74 Southbound, Bothwell","postcode":"G71 8BG","last_updated":"25\/04\/2024 00:00:00","latitude":55.81522,"longitude":-4.060971,"B7":1.809,"E10":1.709,"E5":null,"SDV":null}
{"site_id":"gcn8td7z1m3p","brand":"ASDA","address":"157 Holdenhurst Road, Bournemouth","postcode":"BH8 8DQ","last_updated":"25\/04\/2024 00:00:00","latitude":50.726481,"longitude":-1.86247,"B7":1.567,"E10":1.477,"E5":null,"SDV":null}
{"site_id":"gcpvpkrumb3n","brand":"ASDA","address":"127-131 Bow Road, London","postcode":"E3 2AN","last_updated":"25\/04\/2024 00:00:00","latitude":51.528121,"longitude":-0.021902,"B7":1.567,"E10":1.487,"E5":null,"SDV":null}
{"site_id":"gcwdp2bumj8f","brand":"ASDA","address":"Cemetery Road, Lidget Green, Bradford","postcode":"BD7 2QX","last_updated":"25\/04\/2024 00:00:00","latitude":53.791855,"longitude":-1.791265,"B7":1.537,"E10":1.447,"E5":null,"SDV":null}
{"site_id":"gcwcbsfws475","brand":"ASDA","address":"Rooley Lane, Bradford","postcode":"BD4 7SR","last_updated":"25\/04\/2024 00:00:00","latitude":53.772115,"longitude":-1.728379,"B7":1.537,"E10":1.447,"E5":null,"SDV":null}
{"site_id":"gcpe5rc0qmz5","brand":"ASDA","address":"High Street, Guildford","postcode":"GU5 0HB","last_updated":"25\/04\/2024 00:00:00","latitude":51.19499,"longitude":-0.558651,"B7":1.487,"E10":1.397,"E5":null,"SDV":null}
{"site_id":"gcpmpb2fqsby","brand":"ASDA","address":"Windsor Road, Maidenhead","postcode":"SL6 1UZ","last_updated":"25\/04\/2024 00:00:00","latitude":51.505451,"longitude":-0.711932,"B7":1.597,"E10":1.507,"E5":null,"SDV":null}
{"site_id":"gcmzutnkwpeu","brand":"ASDA","address":"Breck Road, Liverpool","postcode":"L6 5DR","last_updated":"25\/04\/2024 00:00:00","latitude":53.42112,"longitude":-2.95863,"B7":1.517,"E10":1.437,"E5":null,"SDV":null}
{"site_id":"gcqrzvhrrmdq","brand":"ASDA","address":"Lower Bents Ln, Stockport","postcode":"SK6 2NJ","last_updated":"25\/04\/2024 00:00:00","latitude":53.422295,"longitude":-2.11421,"B7":1.577,"E10":1.497,"E5":null,"SDV":null}
{"site_id":"gcwnctcpzxsy","brand":"ASDA","address":"Bridge Lane, Penrith","postcode":"CA11 8JB","last_updated":"25\/04\/2024 00:00:00","latitude":54.657508,"longitude":-2.745588,"B7":1.587,"E10":1.507,"E5":null,"SDV":null}
{"site_id":"gfnkzxjsgyq6","brand":"ASDA","address":"Garth dee Road, Bridge of Dee, Aberdeen, Aberdeen","postcode":"AB10 7QA","last_updated":"25\/04\/2024 00:00:00","latitude":57.124682,"longitude":-2.123557,"B7":1.567,"E10":1.457,"E5":null,"SDV":null}
{"site_id":"gcq6c6m78jnx","brand":"ASDA","address":"Chartwell Business Park, Stourbridge","postcode":"WV15 6AN","last_updated":"25\/04\/2024 00:00:00","latitude":52.527636,"longitude":-2.398787,"B7":1.547,"E10":1.487,"E5":null,"SDV":null}
{"site_id":"gcjfgezp637j","brand":"ASDA","address":"East Quay, Bridgwater","postcode":"TA6 5AZ","last_updated":"25\/04\/2024 00:00:00","latitude":51.13025,"longitude":-3.00054,"B7":1.517,"E10":1.437,"E5":null,"SDV":null}
{"site_id":"gcxgepyw7yy8","brand":"ASDA","address":"Scarborough Road, Bridlington","postcode":"YO16 7NS","last_updated":"25\/04\/2024 00:00:00","latitude":54.095723,"longitude":-0.210716,"B7":1.577,"E10":1.497,"E5":null,"SDV":null}
{"site_id":"gcq6xf23nj93","brand":"ASDA","address":"Pearson Street, Brierley Hill","postcode":"DY5 3BJ","last_updated":"25\/04\/2024 00:00:00","latitude":52.481396,"longitude":-2.117811,"B7":1.557,"E10":1.467,"E5":null,"SDV":null}
{"site_id":"gcpcmhjp5294","brand":"ASDA","address":"Unit 1 Crowhurst Road, off Carden Avenue, Brighton","postcode":"BN1 8AS","last_updated":"25\/04\/2024 00:00:00","latitude":50.867535,"longitude":-0.122511,"B7":1.587,"E10":1.497,"E5":null,"SDV":null}
{"site_id":"gcpcjd5esfex","brand":"ASDA","address":"Brighton Marina, Brighton","postcode":"BN2 5UT","last_updated":"25\/04\/2024 00:00:00","latitude":50.812383,"longitude":-0.104848,"B7":1.587,"E10":1.507,"E5":null,"SDV":null}
{"site_id":"gcrpbfevbn85","brand":"ASDA","address":"Bawtry Road, Rotherham","postcode":"S60 5DL","last_updated":"25\/04\/2024 00:00:00","latitude":53.408092,"longitude":-1.367121,"B7":1.587,"E10":1.507,"E5":null,"SDV":null}
{"site_id":"gcnhmx8fntr6","brand":"ASDA","address":"Oatlands Avenue, Bristol","postcode":"BS14 0ST","last_updated":"25\/04\/2024 00:00:00","latitude":51.413641,"longitude":-2.569482,"B7":1.557,"E10":1.467,"E5":null,"SDV":null}
{"site_id":"gcnhu9b57936","brand":"ASDA","address":"Whiteladies Road, Bristol","postcode":"BS8 2XS","last_updated":"25\/04\/2024 00:00:00","latitude":51.470139,"longitude":-2.614594,"B7":1.557,"E10":1.477,"E5":null,"SDV":null}
{"site_id":"gcp1dmxhzf0b","brand":"ASDA","address":"Grange Road, Southampton","postcode":"SO30 2FU","last_updated":"25\/04\/2024 00:00:00","latitude":50.916582,"longitude":-1.290345,"B7":1.577,"E10":1.477,"E5":null,"SDV":null}
{"site_id":"gcpz5vbq37rz","brand":"ASDA","address":"Broadwater Crescent, Stevenage","postcode":"SG2 8EH","last_updated":"25\/04\/2024 00:00:00","latitude":51.888172,"longitude":-0.186681,"B7":1.567,"E10":1.507,"E5":null,"SDV":null}
{"site_id":"gcwf62mdx842","brand":"ASDA","address":"A6120 Broadway, Horsforth","postcode":"LS18 4DY","last_updated":"25\/04\/2024 00:00:00","latitude":53.834683,"longitude":-1.650485,"B7":1.557,"E10":1.497,"E5":null,"SDV":null}
{"site_id":"gcmzkmfgt4ns","brand":"ASDA","address":"Welton Road - Croft Business Park, Bromborough","postcode":"CH62 3QP","last_updated":"25\/04\/2024 00:00:00","latitude":53.337862,"longitude":-2.973295,"B7":1.527,"E10":1.447,"E5":null,"SDV":null}
{"site_id":"gcq5r9qevdm6","brand":"ASDA","address":"Ironbridge Road, Broseley","postcode":"TF12 5DJ","last_updated":"25\/04\/2024 00:00:00","latitude":52.609625,"longitude":-2.473815,"B7":1.557,"E10":1.487,"E5":null,"SDV":null}
{"site_id":"gcr5f3cm573y","brand":"ASDA","address":"32 Shaw Lane, Leicester","postcode":"LE67 9PU","last_updated":"25\/04\/2024 00:00:00","latitude":52.700889,"longitude":-1.305641,"B7":1.617,"E10":1.587,"E5":null,"SDV":null}
{"site_id":"gcpr9p4ffkfj","brand":"ASDA","address":"Buckingham Ring Road, Buckingham","postcode":"MK18 1RY","last_updated":"25\/04\/2024 00:00:00","latitude":51.988743,"longitude":-0.987388,"B7":1.547,"E10":1.487,"E5":null,"SDV":null}
{"site_id":"gcm8dw51gpm2","brand":"ASDA","address":"Station Road, Builth Wells","postcode":"LD2 3SS","last_updated":"25\/04\/2024 00:00:00","latitude":52.152438,"longitude":-3.401506,"B7":1.567,"E10":1.487,"E5":null,"SDV":null}
{"site_id":"gcpgfuw63mbf","brand":"ASDA","address":"Reigate Road, Burgh Heath, Tadworth","postcode":"KT20 5NZ","last_updated":"25\/04\/2024 00:00:00","latitude":51.30875,"longitude":-0.22253,"B7":1.567,"E10":1.487,"E5":null,"SDV":null}
{"site_id":"gcw6hcnb81ms","brand":"ASDA","address":"Princess Way, Burnley","postcode":"BB12 0EQ","last_updated":"25\/04\/2024 00:00:00","latitude":53.794649,"longitude":-2.24292,"B7":1.547,"E10":1.457,"E5":null,"SDV":null}
{"site_id":"u121rkybrev9","brand":"ASDA","address":"Ness Road, Cambridge","postcode":"CB25 0AA","last_updated":"25\/04\/2024 00:00:00","latitude":52.277132,"longitude":0.328202,"B7":1.637,"E10":1.537,"E5":null,"SDV":null}
{"site_id":"u123r8pjju87","brand":"ASDA","address":"Western Way, Bury St Edmunds","postcode":"IP33 3SP","last_updated":"25\/04\/2024 00:00:00","latitude":52.25155,"longitude":0.69199,"B7":1.557,"E10":1.457,"E5":null,"SDV":null}
{"site_id":"gcybu0xj0q9b","brand":"ASDA","address":"Unit 5, Newcastle Shopping Park, Newcastle upon Tyne","postcode":"NE6 2XP","last_updated":"25\/04\/2024 00:00:00","latitude":54.979225,"longitude":-1.572405,"B7":1.567,"E10":1.477,"E5":null,"SDV":null}
{"site_id":"gcjtqwym5ysf","brand":"ASDA","address":"Pontygwindy Road, Caerphilly","postcode":"CF83 3SX","last_updated":"25\/04\/2024 00:00:00","latitude":51.585824,"longitude":-3.22123,"B7":1.587,"E10":1.477,"E5":null,"SDV":null}
{"site_id":"gfjckcfwhmv9","brand":"ASDA","address":"61 Forfar Road, Dundee","postcode":"DD4 9BS","last_updated":"25\/04\/2024 00:00:00","latitude":56.480406,"longitude":-2.951731,"B7":1.567,"E10":1.487,"E5":null,"SDV":null}
{"site_id":"gcnty0nqqshf","brand":"ASDA","address":"A419 Crickla, Swindon","postcode":"SN6 6JR","last_updated":"25\/04\/2024 00:00:00","latitude":51.635112,"longitude":-1.834222,"B7":1.577,"E10":1.497,"E5":null,"SDV":null}
{"site_id":"gcn8epp9rm08","brand":"ASDA","address":"Culliford Crescent - Canford Heath, Poole","postcode":"BH17 9DW","last_updated":"25\/04\/2024 00:00:00","latitude":50.75152,"longitude":-1.9666,"B7":1.557,"E10":1.467,"E5":null,"SDV":null}
{"site_id":"gcqfh9xp9g5b","brand":"ASDA","address":"Fletchamstead Highway, Coventry","postcode":"CV4 7BB","last_updated":"25\/04\/2024 00:00:00","latitude":52.390362,"longitude":-1.54536,"B7":1.547,"E10":1.517,"E5":null,"SDV":null}
{"site_id":"gcqe9z1wk0rp","brand":"ASDA","address":"Avon Road, Cannock","postcode":"WS11 1LH","last_updated":"25\/04\/2024 00:00:00","latitude":52.68297,"longitude":-2.03563,"B7":1.517,"E10":1.447,"E5":null,"SDV":null}
{"site_id":"u10gbcnm9qb4","brand":"ASDA","address":"Sturry Road, Canterbury","postcode":"CT1 1DG","last_updated":"25\/04\/2024 00:00:00","latitude":51.290393,"longitude":1.098257,"B7":1.587,"E10":1.497,"E5":null,"SDV":null}
{"site_id":"gcjsxx3099sd","brand":"ASDA","address":"Ferry Road Retail Park, Cardiff","postcode":"CF11 0JR","last_updated":"25\/04\/2024 00:00:00","latitude":51.455816,"longitude":-3.183209,"B7":1.557,"E10":1.467,"E5":null,"SDV":null}
{"site_id":"gcvbkzmgfryv","brand":"ASDA","address":"Chandler Way, Carlisle","postcode":"CA3 0JQ","last_updated":"25\/04\/2024 00:00:00","latitude":54.928207,"longitude":-2.94732,"B7":1.557,"E10":1.467,"E5":null,"SDV":null}
{"site_id":"gcny7wrs1ckm","brand":"ASDA","address":"Black Bourton Road, Carterton","postcode":"OX18 3HQ","last_updated":"25\/04\/2024 00:00:00","latitude":51.7578,"longitude":-1.592588,"B7":1.567,"E10":1.477,"E5":null,"SDV":null}
{"site_id":"gcjvkpbkbqm2","brand":"ASDA","address":"17-25 Chepstow Road, Newport","postcode":"NP19 8BW","last_updated":"25\/04\/2024 00:00:00","latitude":51.591305,"longitude":-2.988166,"B7":1.567,"E10":1.487,"E5":null,"SDV":null}
{"site_id":"gcqptjdfk3ry","brand":"ASDA","address":"Wilderspool Causeway, Warrington","postcode":"WA4 6QE","last_updated":"25\/04\/2024 00:00:00","latitude":53.380599,"longitude":-2.588825,"B7":1.567,"E10":1.487,"E5":null,"SDV":null}
{"site_id":"gcqg5qggnbq1","brand":"ASDA","address":"Watling Street, Tamworth","postcode":"B78 1SS","last_updated":"25\/04\/2024 00:00:00","latitude":52.596234,"longitude":-1.609,"B7":1.537,"E10":1.487,"E5":null,"SDV":null}
{"site_id":"gcybh1mz0wr7","brand":"ASDA","address":"Ropery Lane, Chester-le-Street","postcode":"DH3 3AP","last_updated":"25\/04\/2024 00:00:00","latitude":54.852174,"longitude":-1.574023,"B7":1.567,"E10":1.487,"E5":null,"SDV":null}
{"site_id":"gcw2x7cf623h","brand":"ASDA","address":"Milne Street, Chadderton, Oldham","postcode":"OL9 0JE","last_updated":"25\/04\/2024 00:00:00","latitude":53.546712,"longitude":-2.138861,"B7":1.537,"E10":1.457,"E5":null,"SDV":null}
{"site_id":"u10k8fzv2xg3","brand":"ASDA","address":"Rochester Road, Gravesend","postcode":"DA12 4TN","last_updated":"25\/04\/2024 00:00:00","latitude":51.432069,"longitude":0.395142,"B7":1.567,"E10":1.477,"E5":null,"SDV":null}
{"site_id":"u10hbt36vf1q","brand":"ASDA","address":"Bugsby Way, Charlton, London","postcode":"SE7 7ST","last_updated":"25\/04\/2024 00:00:00","latitude":51.489284,"longitude":0.023938,"B7":1.527,"E10":1.467,"E5":null,"SDV":null}
{"site_id":"gcn8tthhbqde","brand":"ASDA","address":"332\/334 Charminster Road, Bournemouth","postcode":"BH8 9QW","last_updated":"25\/04\/2024 00:00:00","latitude":50.741319,"longitude":-1.862023,"B7":1.577,"E10":1.487,"E5":null,"SDV":null}
{"site_id":"u10k5e4990s8","brand":"ASDA","address":"387 Maidstone Road, Chatham","postcode":"ME5 9SE","last_updated":"25\/04\/2024 00:00:00","latitude":51.34679,"longitude":0.508844,"B7":1.547,"E10":1.447,"E5":null,"SDV":null}
{"site_id":"u10q7d0xq2vc","brand":"ASDA","address":"Chelmer Village Centre, Chelmsford","postcode":"CM2 6RE","last_updated":"25\/04\/2024 00:00:00","latitude":51.735868,"longitude":0.506334,"B7":1.547,"E10":1.447,"E5":null,"SDV":null}
{"site_id":"gcnrpw3ev103","brand":"ASDA","address":"Hatherley Lane, Cheltenham","postcode":"GL51 6PN","last_updated":"25\/04\/2024 00:00:00","latitude":51.891662,"longitude":-2.128683,"B7":1.537,"E10":1.457,"E5":null,"SDV":null}
{"site_id":"gcpph52vmjym","brand":"ASDA","address":"Northampton Road, Bicester","postcode":"OX27 7RD","last_updated":"25\/04\/2024 00:00:00","latitude":51.948658,"longitude":-1.201052,"B7":1.819,"E10":1.739,"E5":null,"SDV":null}
{"site_id":"gcvwnj52htgj","brand":"ASDA","address":"3 New Mart Road, Edinburgh","postcode":"EH14 1RJ","last_updated":"25\/04\/2024 00:00:00","latitude":55.925904,"longitude":-3.247354,"B7":1.527,"E10":1.457,"E5":null,"SDV":null}
{"site_id":"gcp1cque463p","brand":"ASDA","address":"10 Bishopstoke Road, Eastleigh","postcode":"SO50 6AF","last_updated":"25\/04\/2024 00:00:00","latitude":50.970021,"longitude":-1.345147,"B7":1.597,"E10":1.517,"E5":null,"SDV":null}
{"site_id":"gcnv0f2tjrq3","brand":"ASDA","address":"Marlborough Road, Swindon","postcode":"SN4 0NR","last_updated":"25\/04\/2024 00:00:00","latitude":51.514699,"longitude":-1.723552,"B7":1.547,"E10":1.497,"E5":null,"SDV":null}
{"site_id":"gcw15vhc51ms","brand":"ASDA","address":"117 Moor Road, Chorley","postcode":"PR7 2NU","last_updated":"25\/04\/2024 00:00:00","latitude":53.640926,"longitude":-2.641045,"B7":1.577,"E10":1.477,"E5":null,"SDV":null}
{"site_id":"gcw1hnksjbf9","brand":"ASDA","address":"Bolton Street, Chorley","postcode":"PR7 3DL","last_updated":"25\/04\/2024 00:00:00","latitude":53.648798,"longitude":-2.629841,"B7":1.557,"E10":1.457,"E5":null,"SDV":null}
{"site_id":"gcn8xk6gjn4f","brand":"ASDA","address":"58 Barrack Road, Christchurch","postcode":"BH23 1PQ","last_updated":"25\/04\/2024 00:00:00","latitude":50.73677,"longitude":-1.786717,"B7":1.587,"E10":1.497,"E5":null,"SDV":null}
{"site_id":"gcw24g7zthk0","brand":"ASDA","address":"Audley Avenue, Stretford","postcode":"M32 9TR","last_updated":"25\/04\/2024 00:00:00","latitude":53.457202,"longitude":-2.336622,"B7":1.577,"E10":1.487,"E5":null,"SDV":null}
{"site_id":"u10ydq5qvpzz","brand":"ASDA","address":"Bull Hill Road, Clacton-on-Sea","postcode":"CO15 4AU","last_updated":"25\/04\/2024 00:00:00","latitude":51.802295,"longitude":1.157747,"B7":1.547,"E10":1.477,"E5":null,"SDV":null}
{"site_id":"gcw1ef1wbwr4","brand":"ASDA","address":"Preston Road, Chorley","postcode":"PR6 7EJ","last_updated":"25\/04\/2024 00:00:00","latitude":53.713452,"longitude":-2.645292,"B7":1.557,"E10":1.487,"E5":null,"SDV":null}
{"site_id":"gcvju3m359hp","brand":"ASDA","address":"Main Street, Coatbridge","postcode":"ML5 3BU","last_updated":"25\/04\/2024 00:00:00","latitude":55.861537,"longitude":-4.024617,"B7":1.577,"E10":1.487,"E5":null,"SDV":null}
{"site_id":"gcmvf43w1r1k","brand":"ASDA","address":"High Street, Wrexham","postcode":"LL11 3UF","last_updated":"25\/04\/2024 00:00:00","latitude":53.055413,"longitude":-3.074378,"B7":1.547,"E10":1.457,"E5":null,"SDV":null}
{"site_id":"u10x5ehnesgd","brand":"ASDA","address":"246 Shrub End Road, Colchester","postcode":"CO3 4SA","last_updated":"25\/04\/2024 00:00:00","latitude":51.873091,"longitude":0.862573,"B7":1.567,"E10":1.467,"E5":null,"SDV":null}
{"site_id":"u10xk2xddxq3","brand":"ASDA","address":"Turner Rise, Colchester","postcode":"CO4 5TU","last_updated":"25\/04\/2024 00:00:00","latitude":51.902629,"longitude":0.900308,"B7":1.557,"E10":1.477,"E5":null,"SDV":null}
{"site_id":"gcpvd06dbtke","brand":"ASDA","address":"Capitol Way off Edgware Road, Colindale, London","postcode":"NW9 0AS","last_updated":"25\/04\/2024 00:00:00","latitude":51.593664,"longitude":-0.260208,"B7":1.577,"E10":1.477,"E5":null,"SDV":null}
{"site_id":"gceny991w6cu","brand":"ASDA","address":"Sweep Road, Cookstown","postcode":"BT80 8JR","last_updated":"25\/04\/2024 00:00:00","latitude":54.63502,"longitude":-6.74608,"B7":1.527,"E10":1.427,"E5":null,"SDV":null}
{"site_id":"gcpfvszy8srf","brand":"ASDA","address":"Copthorne Common, Crawley","postcode":"RH10 3LF","last_updated":"25\/04\/2024 00:00:00","latitude":51.136309,"longitude":-0.097235,"B7":1.547,"E10":1.497,"E5":null,"SDV":null}
{"site_id":"gcrd8s862dv8","brand":"ASDA","address":"Phoenix Park Way, Corby","postcode":"NN17 5DT","last_updated":"25\/04\/2024 00:00:00","latitude":52.493857,"longitude":-0.678637,"B7":1.569,"E10":1.467,"E5":null,"SDV":null}
{"site_id":"gcwfq90gxt8w","brand":"ASDA","address":"Wetherby Road, Leeds","postcode":"LS17 8ND","last_updated":"25\/04\/2024 00:00:00","latitude":53.840221,"longitude":-1.470257,"B7":1.547,"E10":1.497,"E5":null,"SDV":null}
{"site_id":"gcnkw5315nez","brand":"ASDA","address":"101 Pickwick Road, Corsham","postcode":"SN13 9DA","last_updated":"25\/04\/2024 00:00:00","latitude":51.434059,"longitude":-2.19598,"B7":1.567,"E10":1.487,"E5":null,"SDV":null}
{"site_id":"gcqfr2kmzxn5","brand":"ASDA","address":"Brade Drive, Coventry","postcode":"CV2 2PN","last_updated":"25\/04\/2024 00:00:00","latitude":52.429065,"longitude":-1.432156,"B7":1.557,"E10":1.477,"E5":null,"SDV":null}
{"site_id":"gcpfu9s71tf6","brand":"ASDA","address":"Balcombe Road, Crawley","postcode":"RH10 7RU","last_updated":"25\/04\/2024 00:00:00","latitude":51.115887,"longitude":-0.147126,"B7":1.527,"E10":1.437,"E5":null,"SDV":null}
{"site_id":"gcj2uvr2v9t2","brand":"ASDA","address":"Exeter Road, Crediton","postcode":"EX17 3BN","last_updated":"25\/04\/2024 00:00:00","latitude":50.783987,"longitude":-3.646488,"B7":1.567,"E10":1.487,"E5":null,"SDV":null}
{"site_id":"gcqq0hyqc1zz","brand":"ASDA","address":"Bradfield Road, Crewe","postcode":"CW1 3RD","last_updated":"25\/04\/2024 00:00:00","latitude":53.113106,"longitude":-2.45333,"B7":1.567,"E10":1.487,"E5":null,"SDV":null}
{"site_id":"gcjz093cqr93","brand":"ASDA","address":"Brecon Road, Powys","postcode":"NP8 1DE","last_updated":"25\/04\/2024 00:00:00","latitude":51.860148,"longitude":-3.137321,"B7":1.597,"E10":1.517,"E5":null,"SDV":null}
{"site_id":"gcybfsyfg90k","brand":"ASDA","address":"Kenton Ln, Newcastle upon Tyne","postcode":"NE3 3ED","last_updated":"25\/04\/2024 00:00:00","latitude":55.001574,"longitude":-1.665764,"B7":1.567,"E10":1.487,"E5":null,"SDV":null}
{"site_id":"gcwddst8qhvv","brand":"ASDA","address":"Station Road, Keighley","postcode":"BD20 7BQ","last_updated":"25\/04\/2024 00:00:00","latitude":53.901741,"longitude":-1.991693,"B7":1.557,"E10":1.467,"E5":null,"SDV":null}
{"site_id":"gcpvmq336rj1","brand":"ASDA","address":"Tottenham Lane, London","postcode":"N8 8SE","last_updated":"25\/04\/2024 00:00:00","latitude":51.582276,"longitude":-0.119935,"B7":1.597,"E10":1.497,"E5":null,"SDV":null}
{"site_id":"gcvbjr1kgy4y","brand":"ASDA","address":"Currock Road, Carlisle","postcode":"CA2 4AS","last_updated":"25\/04\/2024 00:00:00","latitude":54.884118,"longitude":-2.930985,"B7":1.547,"E10":1.507,"E5":null,"SDV":null}
{"site_id":"gcjvfb959f32","brand":"ASDA","address":"Henllys Way, Newport","postcode":"NP44 3JA","last_updated":"25\/04\/2024 00:00:00","latitude":51.644603,"longitude":-3.025254,"B7":1.547,"E10":1.477,"E5":null,"SDV":null}
{"site_id":"gcpwkvcufqrw","brand":"ASDA","address":"Warners End Road, Hemel Hempstead","postcode":"HP1 3QF","last_updated":"25\/04\/2024 00:00:00","latitude":51.756068,"longitude":-0.491874,"B7":1.537,"E10":1.477,"E5":null,"SDV":null}
{"site_id":"u10j6cvtj1gw","brand":"ASDA","address":"402-410 Becontree Avenue, Dagenham","postcode":"RM8 2UU","last_updated":"25\/04\/2024 00:00:00","latitude":51.558323,"longitude":0.128783,"B7":1.557,"E10":1.467,"E5":null,"SDV":null}
{"site_id":"u10j5hzbxhbp","brand":"ASDA","address":"Merrielands Crescent, Dagenham","postcode":"RM9 6SJ","last_updated":"25\/04\/2024 00:00:00","latitude":51.529501,"longitude":0.139635,"B7":1.557,"E10":1.467,"E5":null,"SDV":null}
{"site_id":"gcwym3dth2bz","brand":"ASDA","address":"Whinbush Way, Darlington","postcode":"DL1 3RB","last_updated":"25\/04\/2024 00:00:00","latitude":54.545393,"longitude":-1.523833,"B7":1.577,"E10":1.477,"E5":null,"SDV":null}
{"site_id":"gcmygd6ygfex","brand":"ASDA","address":"Parkway, Deeside","postcode":"CH5 2NS","last_updated":"25\/04\/2024 00:00:00","latitude":53.232796,"longitude":-3.005242,"B7":1.587,"E10":1.507,"E5":null,"SDV":null}
{"site_id":"gcptkdtws8k9","brand":"ASDA","address":"Oxford Road, Uxbridge","postcode":"UB9 4DF","last_updated":"25\/04\/2024 00:00:00","latitude":51.56904,"longitude":-0.504656,"B7":1.567,"E10":1.497,"E5":null,"SDV":null}
{"site_id":"gcqvn72ktxdg","brand":"ASDA","address":"27 Duffield Road, Derby","postcode":"DE1 3BH","last_updated":"25\/04\/2024 00:00:00","latitude":52.928822,"longitude":-1.482576,"B7":1.567,"E10":1.497,"E5":null,"SDV":null}
{"site_id":"gcqvp9nnxzm6","brand":"ASDA","address":"Derby Road, Spondon","postcode":"DE21 7LW","last_updated":"25\/04\/2024 00:00:00","latitude":52.916821,"longitude":-1.419854,"B7":1.557,"E10":1.457,"E5":null,"SDV":null}
{"site_id":"gcwc6vdt7j89","brand":"ASDA","address":"Mill Street West, Dewsbury","postcode":"WF12 9AE","last_updated":"25\/04\/2024 00:00:00","latitude":53.68837,"longitude":-1.6334,"B7":1.517,"E10":1.427,"E5":null,"SDV":null}
{"site_id":"u10gy90fqzv5","brand":"ASDA","address":"Montagu Road, Sandwich","postcode":"CT13 9FA","last_updated":"25\/04\/2024 00:00:00","latitude":51.287204,"longitude":1.337283,"B7":1.547,"E10":1.477,"E5":null,"SDV":null}
{"site_id":"gcx0qym0prxc","brand":"ASDA","address":"Gliwice Way, Bawtry Road, Doncaster","postcode":"DN4 5NW","last_updated":"25\/04\/2024 00:00:00","latitude":53.516188,"longitude":-1.102366,"B7":1.557,"E10":1.467,"E5":null,"SDV":null}
{"site_id":"gcq7be78u09d","brand":"ASDA","address":"St Georges Road, Telford","postcode":"TF2 7RX","last_updated":"25\/04\/2024 00:00:00","latitude":52.708135,"longitude":-2.432238,"B7":1.527,"E10":1.477,"E5":null,"SDV":null}
{"site_id":"gcnv27c5cyx1","brand":"ASDA","address":"Dorcan Way, Swindon","postcode":"SN3 3RA","last_updated":"25\/04\/2024 00:00:00","latitude":51.568436,"longitude":-1.743716,"B7":1.567,"E10":1.497,"E5":null,"SDV":null}
{"site_id":"gft8n3nc62nz","brand":"ASDA","address":"Dounby, Kirkwall","postcode":"KW17 2HT","last_updated":"25\/04\/2024 00:00:00","latitude":59.068209,"longitude":-3.231591,"B7":1.587,"E10":1.527,"E5":null,"SDV":null}
{"site_id":"gcjsdpgtj7zd","brand":"ASDA","address":"Cowbridge Bypass, Cowbridge","postcode":"CF71 7DT","last_updated":"25\/04\/2024 00:00:00","latitude":51.459513,"longitude":-3.42201,"B7":1.557,"E10":1.487,"E5":null,"SDV":null}
{"site_id":"gcpv63n1mk96","brand":"ASDA","address":"Dudden Hill Lane, Willesden","postcode":"NW10 1DE","last_updated":"25\/04\/2024 00:00:00","latitude":51.553585,"longitude":-0.244226,"B7":1.567,"E10":1.487,"E5":null,"SDV":null}
{"site_id":"gcq6xcxxq7z0","brand":"ASDA","address":"Merryhill Centre, Dudley","postcode":"DY5 1QL","last_updated":"25\/04\/2024 00:00:00","latitude":52.476011,"longitude":-2.10749,"B7":1.557,"E10":1.467,"E5":null,"SDV":null}
{"site_id":"gcjg5frwpvsc","brand":"ASDA","address":"Dunball Roundabout, Bridgwater","postcode":"TA6 4TP","last_updated":"25\/04\/2024 00:00:00","latitude":51.165746,"longitude":-2.988648,"B7":1.547,"E10":1.477,"E5":null,"SDV":null}
{"site_id":"gcynwbs1fj2h","brand":"ASDA","address":"Spott Road, Dunbar","postcode":"EH42 1LE","last_updated":"25\/04\/2024 00:00:00","latitude":55.989404,"longitude":-2.51029,"B7":1.567,"E10":1.467,"E5":null,"SDV":null}
{"site_id":"gfjck56dbbpm","brand":"ASDA","address":"7-9 Derwent Avenue, Dundee","postcode":"DD3 0SZ","last_updated":"25\/04\/2024 00:00:00","latitude":56.488037,"longitude":-2.979334,"B7":1.537,"E10":1.467,"E5":null,"SDV":null}
{"site_id":"gfjcm3qcmvgy","brand":"ASDA","address":"Milton Of Craigie Road, Dundee","postcode":"DD4 7RX","last_updated":"25\/04\/2024 00:00:00","latitude":56.474831,"longitude":-2.92537,"B7":1.547,"E10":1.457,"E5":null,"SDV":null}
{"site_id":"gfjc695ughgn","brand":"ASDA","address":"61 Myrekirk Road, Dundee","postcode":"DD2 4WB","last_updated":"25\/04\/2024 00:00:00","latitude":56.473387,"longitude":-3.050387,"B7":1.547,"E10":1.467,"E5":null,"SDV":null}
{"site_id":"gcvx43r9xbgx","brand":"ASDA","address":"Halbeath Road Retail Park, Fife","postcode":"KY11 4LP","last_updated":"25\/04\/2024 00:00:00","latitude":56.081348,"longitude":-3.406111,"B7":1.557,"E10":1.477,"E5":null,"SDV":null}
{"site_id":"gfnmqtb2h86b","brand":"ASDA","address":"Riverview Drive, Dyce, Aberdeen","postcode":"AB21 7NG","last_updated":"25\/04\/2024 00:00:00","latitude":57.204251,"longitude":-2.17216,"B7":1.567,"E10":1.477,"E5":null,"SDV":null}
{"site_id":"gcrr66xepg07","brand":"ASDA","address":"Wharf Road, East Retford","postcode":"DN22 6EN","last_updated":"25\/04\/2024 00:00:00","latitude":53.320954,"longitude":-0.941507,"B7":1.587,"E10":1.497,"E5":null,"SDV":null}
{"site_id":"u100zrjr52np","brand":"ASDA","address":"The Crumbles - Pevensey Bay Road, Eastbourne","postcode":"BN23 6JH","last_updated":"25\/04\/2024 00:00:00","latitude":50.796491,"longitude":0.325961,"B7":1.557,"E10":1.477,"E5":null,"SDV":null}
{"site_id":"gcw2q069jsyn","brand":"ASDA","address":"ASDA Sportcity, Ashton New Road, Manchester","postcode":"M11 4BD","last_updated":"25\/04\/2024 00:00:00","latitude":53.484036,"longitude":-2.195119,"B7":1.557,"E10":1.467,"E5":null,"SDV":null}
{"site_id":"gcp1bq7dd7bm","brand":"ASDA","address":"Bournemouth Road, Eastleigh","postcode":"SO53 3YJ","last_updated":"25\/04\/2024 00:00:00","latitude":50.966475,"longitude":-1.389003,"B7":1.577,"E10":1.497,"E5":null,"SDV":null}
{"site_id":"gcqkrwtrybd2","brand":"ASDA","address":"59 Eccleshall Road, Stafford","postcode":"ST16 2SL","last_updated":"25\/04\/2024 00:00:00","latitude":52.81541,"longitude":-2.123941,"B7":1.557,"E10":1.507,"E5":null,"SDV":null}
{"site_id":"gcvy1r7gr66e","brand":"ASDA","address":"100 The Jewel, Brunstane, Edinburgh","postcode":"EH15 3AR","last_updated":"25\/04\/2024 00:00:00","latitude":55.938863,"longitude":-3.101527,"B7":1.557,"E10":1.487,"E5":null,"SDV":null}
{"site_id":"gfjxutmmuyg7","brand":"ASDA","address":"Edgar Road, Elgin","postcode":"IV30 6YQ","last_updated":"25\/04\/2024 00:00:00","latitude":57.640515,"longitude":-3.306699,"B7":1.567,"E10":1.437,"E5":null,"SDV":null}
{"site_id":"gcr5bcsskn11","brand":"ASDA","address":"99 Midland Road, Coalville","postcode":"LE67 1EH","last_updated":"25\/04\/2024 00:00:00","latitude":52.699431,"longitude":-1.366938,"B7":1.587,"E10":1.537,"E5":null,"SDV":null}
{"site_id":"gcpvce4gwkjn","brand":"ASDA","address":"Allum Lane, Elstree, Borehamwood","postcode":"WD6 3LS","last_updated":"25\/04\/2024 00:00:00","latitude":51.652845,"longitude":-0.281593,"B7":1.567,"E10":1.487,"E5":null,"SDV":null}
{"site_id":"gcdt4k6t0278","brand":"ASDA","address":"Derrychara Rd, Enniskillen","postcode":"BT74 6JG","last_updated":"25\/04\/2024 00:00:00","latitude":54.3413,"longitude":-7.63324,"B7":1.497,"E10":1.437,"E5":null,"SDV":null}
{"site_id":"gcr04nc8hd99","brand":"ASDA","address":"Ermont Way, Banbury","postcode":"OX16 8SZ","last_updated":"25\/04\/2024 00:00:00","latitude":52.068942,"longitude":-1.316265,"B7":1.557,"E10":1.507,"E5":null,"SDV":null}
{"site_id":"gcqmqvjnvhnt","brand":"ASDA","address":"Blurton Road, Stoke-on-trent","postcode":"ST3 2AQ","last_updated":"25\/04\/2024 00:00:00","latitude":52.982748,"longitude":-2.157216,"B7":1.557,"E10":1.497,"E5":null,"SDV":null}
{"site_id":"gcq87z4wjexx","brand":"ASDA","address":"A46 Evesham Bypass, Evesham","postcode":"WR11 4TP","last_updated":"25\/04\/2024 00:00:00","latitude":52.113392,"longitude":-1.939462,"B7":1.567,"E10":1.487,"E5":null,"SDV":null}
{"site_id":"gcrg7f2pgmvh","brand":"ASDA","address":"A47 East Bound, Eye","postcode":"PE6 7SZ","last_updated":"25\/04\/2024 00:00:00","latitude":52.612218,"longitude":-0.187323,"B7":1.577,"E10":1.497,"E5":null,"SDV":null}
{"site_id":"gbum7e2zuqhb","brand":"ASDA","address":"Jennings Road, Penryn","postcode":"TR10 9LY","last_updated":"25\/04\/2024 00:00:00","latitude":50.160817,"longitude":-5.11841,"B7":1.537,"E10":1.467,"E5":null,"SDV":null}
{"site_id":"gcp1k6hp9d74","brand":"ASDA","address":"165 Highlands Road, Fareham","postcode":"PO15 5PR","last_updated":"25\/04\/2024 00:00:00","latitude":50.857175,"longitude":-1.213834,"B7":1.597,"E10":1.497,"E5":null,"SDV":null}
{"site_id":"gcp1jn1dxu53","brand":"ASDA","address":"Speedfields Park, Newgate Lane, Fareham","postcode":"PO14 1TT","last_updated":"25\/04\/2024 00:00:00","latitude":50.833922,"longitude":-1.184805,"B7":1.557,"E10":1.477,"E5":null,"SDV":null}
{"site_id":"gcqp9xq72y04","brand":"ASDA","address":"184-186 Lunts Heath Road, Halton","postcode":"WA8 5AZ","last_updated":"25\/04\/2024 00:00:00","latitude":53.389993,"longitude":-2.737918,"B7":1.567,"E10":1.477,"E5":null,"SDV":null}
{"site_id":"gcw29kpemdgy","brand":"ASDA","address":"Brackley Street, Farnworth, Bolton","postcode":"BL4 9DT","last_updated":"25\/04\/2024 00:00:00","latitude":53.547937,"longitude":-2.395465,"B7":1.557,"E10":1.477,"E5":null,"SDV":null}
{"site_id":"gcqmrpkm70wc","brand":"ASDA","address":"King Street, Stoke-on-trent","postcode":"ST4 2LT","last_updated":"25\/04\/2024 00:00:00","latitude":52.997762,"longitude":-2.157717,"B7":1.567,"E10":1.507,"E5":null,"SDV":null}
{"site_id":"gcpmpkdcfxcx","brand":"ASDA","address":"Gringer Hill, Marlow Road, Maidenhead","postcode":"SL6 7LZ","last_updated":"25\/04\/2024 00:00:00","latitude":51.531368,"longitude":-0.73444,"B7":1.587,"E10":1.497,"E5":null,"SDV":null}
{"site_id":"gcp9je7msdzy","brand":"ASDA","address":"Littlehampton Road, Ferring","postcode":"BN12 6PN","last_updated":"25\/04\/2024 00:00:00","latitude":50.819594,"longitude":-0.456759,"B7":1.557,"E10":1.477,"E5":null,"SDV":null}
{"site_id":"gcxcbs16qsjb","brand":"ASDA","address":"Stoneferry Retail Park, Stoneferry Road, Hull","postcode":"HU7 0BA","last_updated":"25\/04\/2024 00:00:00","latitude":53.767129,"longitude":-0.328734,"B7":1.587,"E10":1.477,"E5":null,"SDV":null}
{"site_id":"gcr9c0t37pct","brand":"ASDA","address":"Burton Road, Wellingborough","postcode":"NN9 5HX","last_updated":"25\/04\/2024 00:00:00","latitude":52.34187,"longitude":-0.651838,"B7":1.647,"E10":1.547,"E5":null,"SDV":null}
{"site_id":"gctferv627rr","brand":"ASDA","address":"Cop Lane, Fleetwood","postcode":"FY7 6NU","last_updated":"25\/04\/2024 00:00:00","latitude":53.91993,"longitude":-3.01401,"B7":1.577,"E10":1.487,"E5":null,"SDV":null}
{"site_id":"gcjy57w8xw24","brand":"ASDA","address":"A4042 Roundabout, Pontypool","postcode":"NP4 0XB","last_updated":"25\/04\/2024 00:00:00","latitude":51.692755,"longitude":-3.021046,"B7":1.567,"E10":1.487,"E5":null,"SDV":null}
{"site_id":"gcwys2vdehyq","brand":"ASDA","address":"Newton Park, Coatham Mundeville","postcode":"DL1 3NL","last_updated":"25\/04\/2024 00:00:00","latitude":54.584778,"longitude":-1.563354,"B7":1.607,"E10":1.507,"E5":null,"SDV":null}
{"site_id":"gfjfnr90517j","brand":"ASDA","address":"Unit 1, New Road, Forfar","postcode":"DD8 2AE","last_updated":"25\/04\/2024 00:00:00","latitude":56.642264,"longitude":-2.886824,"B7":1.577,"E10":1.457,"E5":null,"SDV":null}
{"site_id":"gfq81wrkh9m6","brand":"ASDA","address":"Watermill Road, Fraserburgh","postcode":"AB43 7ED","last_updated":"25\/04\/2024 00:00:00","latitude":57.692464,"longitude":-2.023735,"B7":1.577,"E10":1.487,"E5":null,"SDV":null}
{"site_id":"gcn77t6v1kzf","brand":"ASDA","address":"Warminster Road, Frome","postcode":"BA11 5LA","last_updated":"25\/04\/2024 00:00:00","latitude":51.227391,"longitude":-2.3044,"B7":1.607,"E10":1.507,"E5":null,"SDV":null}
{"site_id":"gcvj8vnw5kxg","brand":"ASDA","address":"2101 London Rd, Glasgow","postcode":"G32 8XQ","last_updated":"25\/04\/2024 00:00:00","latitude":55.839046,"longitude":-4.176703,"B7":1.587,"E10":1.497,"E5":null,"SDV":null}
{"site_id":"gcw44bkm1c2s","brand":"ASDA","address":"East Way - Fulwood, Preston","postcode":"PR2 9NP","last_updated":"25\/04\/2024 00:00:00","latitude":53.791151,"longitude":-2.68316,"B7":1.497,"E10":1.417,"E5":null,"SDV":null}
{"site_id":"gcyh2hv6bnx9","brand":"ASDA","address":"Currie Road, Galashiels","postcode":"TD1 2AG","last_updated":"25\/04\/2024 00:00:00","latitude":55.61742,"longitude":-2.80528,"B7":1.537,"E10":1.467,"E5":null,"SDV":null}
{"site_id":"gcvjdrye7gnx","brand":"ASDA","address":"61 Edinburgh Road, Glasgow","postcode":"G69 6DD","last_updated":"25\/04\/2024 00:00:00","latitude":55.853706,"longitude":-4.110594,"B7":1.607,"E10":1.517,"E5":null,"SDV":null}
{"site_id":"gcyb9v4m5ju9","brand":"ASDA","address":"Metro Centre, Gibside Way, Gateshead","postcode":"NE11 9YA","last_updated":"25\/04\/2024 00:00:00","latitude":54.959921,"longitude":-1.677779,"B7":1.567,"E10":1.477,"E5":null,"SDV":null}
{"site_id":"gcq7rwhkh4y7","brand":"ASDA","address":"Stafford Rd, Wolverhampton","postcode":"WV10 7ER","last_updated":"25\/04\/2024 00:00:00","latitude":52.636519,"longitude":-2.125695,"B7":1.557,"E10":1.477,"E5":null,"SDV":null}
{"site_id":"u10km17zjgf4","brand":"ASDA","address":"Cornwallis Roundabout, Gillingham","postcode":"ME8 6PS","last_updated":"25\/04\/2024 00:00:00","latitude":51.380159,"longitude":0.576688,"B7":1.577,"E10":1.487,"E5":null,"SDV":null}
{"site_id":"u10kks4rxz42","brand":"ASDA","address":"Pier Road, Gillingham","postcode":"ME7 1RZ","last_updated":"25\/04\/2024 00:00:00","latitude":51.395368,"longitude":0.552742,"B7":1.557,"E10":1.457,"E5":null,"SDV":null}
{"site_id":"gcvj8rvvhsze","brand":"ASDA","address":"1300 Duke Street, Glasgow","postcode":"G31 4EB","last_updated":"25\/04\/2024 00:00:00","latitude":55.854003,"longitude":-4.201596,"B7":1.557,"E10":1.467,"E5":null,"SDV":null}
{"site_id":"gcx194rm3sdf","brand":"ASDA","address":"Leeds Road, Glasshoughton, Castleford","postcode":"WF10 5EL","last_updated":"25\/04\/2024 00:00:00","latitude":53.714952,"longitude":-1.352809,"B7":1.517,"E10":1.437,"E5":null,"SDV":null}
{"site_id":"gcp7sycbhvmu","brand":"ASDA","address":"42 Reading Road South, Fleet","postcode":"GU51 3QP","last_updated":"25\/04\/2024 00:00:00","latitude":51.277242,"longitude":-0.843084,"B7":1.567,"E10":1.497,"E5":null,"SDV":null}
{"site_id":"gcvz8nbgkmcx","brand":"ASDA","address":"Fullerton Road, Glenrothes","postcode":"KY7 5QB","last_updated":"25\/04\/2024 00:00:00","latitude":56.19924,"longitude":-3.17138,"B7":1.567,"E10":1.467,"E5":null,"SDV":null}
{"site_id":"gcnrj17qqq21","brand":"ASDA","address":"Bruton Way, Gloucester","postcode":"GL1 1DS","last_updated":"25\/04\/2024 00:00:00","latitude":51.862606,"longitude":-2.235281,"B7":1.537,"E10":1.457,"E5":null,"SDV":null}
{"site_id":"gcw0hxz7bzsy","brand":"ASDA","address":"Edge Green Lane, Warrington","postcode":"WA3 3SP","last_updated":"25\/04\/2024 00:00:00","latitude":53.47965,"longitude":-2.602795,"B7":1.557,"E10":1.477,"E5":null,"SDV":null}
{"site_id":"gcwc9tn5d0bd","brand":"ASDA","address":"Oxford Road, Cleckheaton","postcode":"BD19 4PY","last_updated":"25\/04\/2024 00:00:00","latitude":53.729243,"longitude":-1.683568,"B7":1.547,"E10":1.447,"E5":null,"SDV":null}
{"site_id":"gcpt475bndsn","brand":"ASDA","address":"93 Stoke Poges Lane, Slough","postcode":"SL1 3NJ","last_updated":"25\/04\/2024 00:00:00","latitude":51.520467,"longitude":-0.598974,"B7":1.587,"E10":1.497,"E5":null,"SDV":null}
{"site_id":"gcyc4gpcpxj5","brand":"ASDA","address":"Rotary Way, Newcastle Upon Tyne","postcode":"NE3 5EH","last_updated":"25\/04\/2024 00:00:00","latitude":55.03622,"longitude":-1.625991,"B7":1.577,"E10":1.497,"E5":null,"SDV":null}
{"site_id":"gcybgnu7mc9t","brand":"ASDA","address":"Hollywood Avenue, Newcastle upon Tyne","postcode":"NE3 5BU","last_updated":"25\/04\/2024 00:00:00","latitude":55.013194,"longitude":-1.619794,"B7":1.547,"E10":1.467,"E5":null,"SDV":null}
{"site_id":"gcuvtxshq35s","brand":"ASDA","address":"500 Helen Street, Glasgow","postcode":"G51 3HR","last_updated":"25\/04\/2024 00:00:00","latitude":55.852668,"longitude":-4.322557,"B7":1.549,"E10":1.447,"E5":null,"SDV":null}
{"site_id":"gcvqeq5hcn31","brand":"ASDA","address":"Dock Road, Grangemouth","postcode":"FK3 8TY","last_updated":"25\/04\/2024 00:00:00","latitude":56.02016,"longitude":-3.71782,"B7":1.567,"E10":1.477,"E5":null,"SDV":null}
{"site_id":"gcrt128vuzvx","brand":"ASDA","address":"Union Street, Grantham","postcode":"NG31 6NZ","last_updated":"25\/04\/2024 00:00:00","latitude":52.913372,"longitude":-0.64508,"B7":1.557,"E10":1.457,"E5":null,"SDV":null}
{"site_id":"u10k8kcrhhys","brand":"ASDA","address":"Thames Way, Gravesend","postcode":"DA11 0DQ","last_updated":"25\/04\/2024 00:00:00","latitude":51.443095,"longitude":0.361967,"B7":1.547,"E10":1.457,"E5":null,"SDV":null}
{"site_id":"gcqdcfg6862x","brand":"ASDA","address":"Brickhouse Lane, Tipton","postcode":"DY4 7HW","last_updated":"25\/04\/2024 00:00:00","latitude":52.530902,"longitude":-2.026537,"B7":1.547,"E10":1.457,"E5":null,"SDV":null}
{"site_id":"gcqrxpurh5mz","brand":"ASDA","address":"172-6 Buxton Road, Stockport","postcode":"SK2 6HA","last_updated":"25\/04\/2024 00:00:00","latitude":53.393301,"longitude":-2.147202,"B7":1.577,"E10":1.497,"E5":null,"SDV":null}
{"site_id":"u135r1tmusxm","brand":"ASDA","address":"Acle New Road, Runham Vauxhall, Great Yarmouth","postcode":"NR30 1SF","last_updated":"25\/04\/2024 00:00:00","latitude":52.611791,"longitude":1.72128,"B7":1.527,"E10":1.447,"E5":null,"SDV":null}
{"site_id":"gcnfjumnmwe9","brand":"ASDA","address":"Great Bridge Road, Romsey","postcode":"SO51 0HB","last_updated":"25\/04\/2024 00:00:00","latitude":50.997984,"longitude":-1.498877,"B7":1.577,"E10":1.507,"E5":null,"SDV":null}
{"site_id":"gcw2ejxxbh46","brand":"ASDA","address":"New Road, Radcliffe","postcode":"M26 1LS","last_updated":"25\/04\/2024 00:00:00","latitude":53.556553,"longitude":-2.316138,"B7":1.567,"E10":1.487,"E5":null,"SDV":null}
{"site_id":"u10hwqfb5qfz","brand":"ASDA","address":"Crossways Boulevard, Greenhithe","postcode":"DA9 9BT","last_updated":"25\/04\/2024 00:00:00","latitude":51.453132,"longitude":0.278578,"B7":1.547,"E10":1.447,"E5":null,"SDV":null}
{"site_id":"gcmzeqkd9m6s","brand":"ASDA","address":"6 New Chester Road, Birkenhead","postcode":"CH41 9AZ","last_updated":"25\/04\/2024 00:00:00","latitude":53.38439,"longitude":-3.015014,"B7":1.527,"E10":1.447,"E5":null,"SDV":null}
{"site_id":"gcxbwpxs1hg5","brand":"ASDA","address":"Holles Street, Grimsby","postcode":"DN32 9DL","last_updated":"25\/04\/2024 00:00:00","latitude":53.567302,"longitude":-0.077544,"B7":1.527,"E10":1.447,"E5":null,"SDV":null}
{"site_id":"gcqryctqkecf","brand":"ASDA","address":"Wellington New Road, Stockport","postcode":"SK1 3UA","last_updated":"25\/04\/2024 00:00:00","latitude":53.402844,"longitude":-2.156887,"B7":1.587,"E10":1.507,"E5":null,"SDV":null}
{"site_id":"gbuzrun7euzg","brand":"ASDA","address":"Pearce's Garage, Gunnislake","postcode":"PL18 9EE","last_updated":"25\/04\/2024 00:00:00","latitude":50.515763,"longitude":-4.220981,"B7":1.537,"E10":1.457,"E5":null,"SDV":null}
{"site_id":"gcq6h75932he","brand":"ASDA","address":"Franche Road, Kidderminster","postcode":"DY11 5BL","last_updated":"25\/04\/2024 00:00:00","latitude":52.399906,"longitude":-2.270076,"B7":1.527,"E10":1.487,"E5":null,"SDV":null}
{"site_id":"gcyn242cfu45","brand":"ASDA","address":"Haddington Retail Park, Haddington","postcode":"EH41 3FW","last_updated":"25\/04\/2024 00:00:00","latitude":55.954686,"longitude":-2.813832,"B7":1.587,"E10":1.497,"E5":null,"SDV":null}
{"site_id":"gcw9tdtq93sz","brand":"ASDA","address":"Skircoat Road, Halifax","postcode":"HX1 2JN","last_updated":"25\/04\/2024 00:00:00","latitude":53.718026,"longitude":-1.859939,"B7":1.567,"E10":1.497,"E5":null,"SDV":null}
{"site_id":"gcw9th344j0y","brand":"ASDA","address":"Thrum Hall Lane, Halifax","postcode":"HX1 4PG","last_updated":"25\/04\/2024 00:00:00","latitude":53.72312,"longitude":-1.88621,"B7":1.547,"E10":1.447,"E5":null,"SDV":null}
{"site_id":"gcpw7qjdh0ys","brand":"ASDA","address":"London Road, Berkhamsted","postcode":"HP4 2NB","last_updated":"25\/04\/2024 00:00:00","latitude":51.756938,"longitude":-0.552593,"B7":1.537,"E10":1.467,"E5":null,"SDV":null}
{"site_id":"gcm9265z20w4","brand":"ASDA","address":"Doldowlod, Llandrindod Wells","postcode":"LD1 6NN","last_updated":"25\/04\/2024 00:00:00","latitude":52.26025,"longitude":-3.497935,"B7":1.577,"E10":1.497,"E5":null,"SDV":null}
{"site_id":"gcvjk5yudhyg","brand":"ASDA","address":"M74 Northbound, Hamilton","postcode":"ML3 6JW","last_updated":"25\/04\/2024 00:00:00","latitude":55.787908,"longitude":-4.036307,"B7":1.799,"E10":1.699,"E5":null,"SDV":null}
{"site_id":"gcmyw3c7h0px","brand":"ASDA","address":"Queen's Park Road, Chester","postcode":"CH4 7JF","last_updated":"25\/04\/2024 00:00:00","latitude":53.183957,"longitude":-2.887505,"B7":1.607,"E10":1.517,"E5":null,"SDV":null}
{"site_id":"gcqd7tf0strm","brand":"ASDA","address":"261-263 High Street, Birmingham","postcode":"B17 9QG","last_updated":"25\/04\/2024 00:00:00","latitude":52.458458,"longitude":-1.952616,"B7":1.557,"E10":1.467,"E5":null,"SDV":null}
{"site_id":"gcq5cdembtf8","brand":"ASDA","address":"Harlescott Ln, Shrewsbury","postcode":"SY1 3AP","last_updated":"25\/04\/2024 00:00:00","latitude":52.738458,"longitude":-2.730624,"B7":1.537,"E10":1.487,"E5":null,"SDV":null}
{"site_id":"gcw2mtw4v991","brand":"ASDA","address":"Harpurhey Shopping Centre, Manchester","postcode":"M9 4DJ","last_updated":"25\/04\/2024 00:00:00","latitude":53.510646,"longitude":-2.212639,"B7":1.547,"E10":1.447,"E5":null,"SDV":null}
{"site_id":"gcwgjjfkpjhb","brand":"ASDA","address":"Bower Road, Harrogate","postcode":"HG1 5DE","last_updated":"25\/04\/2024 00:00:00","latitude":53.997143,"longitude":-1.534689,"B7":1.557,"E10":1.497,"E5":null,"SDV":null}
{"site_id":"gcq3tt0pr9f9","brand":"ASDA","address":"Crown Lane, Waresley","postcode":"DY11 7XP","last_updated":"25\/04\/2024 00:00:00","latitude":52.323471,"longitude":-2.232881,"B7":1.587,"E10":1.507,"E5":null,"SDV":null}
{"site_id":"gcxph7ytxww5","brand":"ASDA","address":"Marina Way, Hartlepool","postcode":"TS24 0XR","last_updated":"25\/04\/2024 00:00:00","latitude":54.689553,"longitude":-1.210183,"B7":1.557,"E10":1.477,"E5":null,"SDV":null}
